     3.04           OBSERVATION DATA    M: Mixed            RINEX VERSION / TYPE
RTKCONV-EX 2.5.0                        20250914 071152 UTC PGM / RUN BY / DATE 
format: RINEX                                               COMMENT             
log: Z:\Users\hurunzhi\project\TASGNSS\data\20210610\COM38_2COMMENT             
  10610_025603.obs                                          COMMENT             
                                                            MARKER NAME         
                                                            MARKER NUMBER       
                                                            MARKER TYPE         
                                                            OBSERVER / AGENCY   
                                                            REC # / TYPE / VERS 
                                                            ANT # / TYPE        
        0.0000        0.0000        0.0000                  APPROX POSITION XYZ 
        0.0000        0.0000        0.0000                  ANTENNA: DELTA H/E/N
G   11 C1C L1C D1C S1C C2L L2L D2L S2L C2S D2S S2S          SYS / # / OBS TYPES 
R    8 C1C L1C D1C S1C C2C L2C D2C S2C                      SYS / # / OBS TYPES 
E    8 C1C L1C D1C S1C C7Q L7Q D7Q S7Q                      SYS / # / OBS TYPES 
J    8 C1C L1C D1C S1C C2L L2L D2L S2L                      SYS / # / OBS TYPES 
S    4 C1C L1C D1C S1C                                      SYS / # / OBS TYPES 
C    8 C2I L2I D2I S2I C7I L7I D7I S7I                      SYS / # / OBS TYPES 
  2021    06    10    03    35   55.0050000     GPS         TIME OF FIRST OBS   
  2021    06    10    03    39   17.0050000     GPS         TIME OF LAST OBS    
G L1C                                                       SYS / PHASE SHIFT   
G L2L  0.00000                                              SYS / PHASE SHIFT   
R L1C                                                       SYS / PHASE SHIFT   
R L2C                                                       SYS / PHASE SHIFT   
E L1C  0.00000                                              SYS / PHASE SHIFT   
E L7Q  0.00000                                              SYS / PHASE SHIFT   
J L1C                                                       SYS / PHASE SHIFT   
J L2L  0.00000                                              SYS / PHASE SHIFT   
S L1C                                                       SYS / PHASE SHIFT   
C L2I                                                       SYS / PHASE SHIFT   
C L7I                                                       SYS / PHASE SHIFT   
  0                                                         GLONASS SLOT / FRQ #
 C1C    0.000 C1P    0.000 C2C    0.000 C2P    0.000        GLONASS COD/PHS/BIS 
                                                            END OF HEADER       
> 2021 06 10 03 35 55.0050000  0 25                     
G01  22597502.249 2 118750665.71615     -3128.631          33.000    22597501.639 2  92532990.27915     -2437.159          33.000                                                  
G07  23622945.738 1 124139413.68813     -3546.278          35.000    23622946.490 4                     -2763.320          29.000                                                  
G28  24260891.822 4                      1958.235          28.000                                                                                                                  
G21  25329421.894 2                     -3718.970          26.000                                                                                                                  
G14  22831345.537 9                      1580.743          26.000    22831349.945 8                      1230.780          26.000                                                  
C13  38486307.389 9                       229.527          21.000    38486302.686 8                       173.849          24.000  
C34  25592495.839 1 133266830.20715     -2328.920          34.000                                                                  
C11  24323509.493 8                     -1836.822          27.000    24323500.571 1  97940641.09913     -1420.576          34.000  
R09  21878098.409 4                     -3437.569          30.000    21878098.452 2  90866076.19414     -2673.241          34.000  
G30  22924994.644 9                     -1711.465          22.000    22924988.259 9                     -1332.615          20.000                                                  
G03  23759897.238 9                       921.821          20.000    23759889.609 9                       716.002          22.000                                                  
S28  38898213.944 9                      -561.133          28.000  
C07  37618127.619 8                       -39.888          25.000    37618111.066 1 151472535.04014       -29.899          33.000  
E26  25636450.752 9                       577.049          23.000    25636458.707 4                       443.337          25.000  
S37  38085540.214 9                      -546.582          28.000  
E21  25554995.366 8                       822.276          27.000    25554995.114 4                       630.303          28.000  
E27  25625514.380 2                     -1709.745          29.000    25625517.826 1 103183337.23713     -1309.784          35.000  
E15  28514987.487 9                     -3061.617          20.000    28514974.795 4                     -2345.963          24.000  
E14  20469749.435 1 107569250.10413     -1504.841          35.000    20469749.694 1  82423191.82712     -1153.236          39.000  
J07  38085527.787 9                      -552.071          24.000    38085526.828 2 155953865.78114      -429.128          34.000  
J03  41284469.928 4                      -846.320          27.000    41284480.641 4                      -659.075          29.000  
J02  38126363.480 9                       284.778          26.000    38126368.201 2                       221.589          30.000  
E13  25211032.433 9                     -1832.506          21.000    25211034.885 8                     -1408.956          25.000  
C08                                                                  38026598.500 9                       -99.014          23.000  
R20                                                                  22409834.786 9                     -2265.249          26.000  
> 2021 06 10 03 35 56.0050000  0 26                     
G01  22598097.526 2 118753794.705 5     -3129.659          33.000    22598097.139 2  92535428.505 5     -2438.816          33.000                                                  
G07  23623620.564 1 124142960.218 3     -3546.205          35.000    23623621.187 4                     -2763.832          28.000                                                  
G28  24260519.404 4                      1958.518          28.000                                                                                                                  
G22  24282953.276 9                     -1058.102          14.000                                                                                                                  
G21  25330129.476 2                     -3718.726          27.000                                                                                                                  
G14  22831043.863 9                      1580.123          24.000    22831048.603 8                      1230.361          26.000                                                  
C13  38486264.200 9                       223.787          20.000    38486258.733 8                       171.926          24.000  
C34  25592943.073 1 133269159.301 4     -2328.864          35.000                                                                  
C11  24323863.570 8                     -1836.974          26.000    24323853.385 1  97942061.425 3     -1420.475          35.000  
R09  21878742.074 4                     -3438.263          31.000    21878742.345 2  90868749.910 4     -2674.305          34.000  
G30  22925319.871 9                     -1713.507          22.000    22925313.076 9                     -1332.376          21.000                                                  
G03  23759722.073 9                       921.242          20.000    23759714.984 9                       715.300          23.000                                                  
S28  38898318.499 9                      -549.463          28.000  
C07  37618134.585 8                       -38.229          26.000    37618118.518 2 151472565.016 5       -29.998          33.000  
E26  25636340.334 9                       573.245          24.000    25636349.205 4                       443.083          25.000  
S37  38085644.040 9                      -556.592          27.000  
E21  25554838.455 8                       822.213          27.000    25554837.634 4                       630.381          27.000  
E27  25625839.659 2                     -1708.968          29.000    25625843.152 1 103184646.916 3     -1309.893          35.000  
E15  28515571.487 9                     -3065.660          20.000    28515557.513 8                     -2345.113          23.000  
E14  20470035.776 1 107570755.003 3     -1504.964          35.000    20470035.946 1  82424344.955 2     -1153.438          37.000  
J07  38085632.168 9                      -553.432          23.000    38085631.614 2 155954295.154 4      -429.179          34.000  
J03  41284631.533 4                      -846.488          28.000    41284640.852 8                      -659.611          29.000  
J02  38126310.512 8                       285.342          27.000    38126314.035 2 156120896.12215       221.204          31.000  
E13  25211380.946 9                     -1837.949          20.000    25211382.979 9                     -1405.919          23.000  
C08                                                                  38026622.200 9                       -95.672          23.000  
R20                                                                  22410380.884 8                     -2264.411          26.000  
> 2021 06 10 03 35 57.0050000  0 25                     
G01  22598692.855 2 118756923.974 5     -3129.767          33.000    22598692.562 2  92537866.831 5     -2438.156          33.000                                                  
G07  23624295.457 1 124146506.868 3     -3546.786          35.000    23624296.043 2                     -2763.740          29.000                                                  
G28  24260146.203 4                      1958.547          28.000                                                                                                                  
G21  25330836.969 2                     -3718.268          27.000                                                                                                                  
G14  22830744.489 9                      1579.232          24.000    22830748.214 8                      1229.484          25.000                                                  
C13  38486221.491 9                       237.498          20.000    38486216.642 8                       174.987          25.000  
C34  25593390.367 1 133271488.155 4     -2328.597          35.000                                                                  
C11  24324216.203 4                     -1836.904          27.000    24324206.084 1  97943481.604 3     -1419.880          36.000  
R09  21879385.848 4                     -3437.646          31.000    21879386.118 2  90871424.010 3     -2674.187          35.000  
G30  22925645.581 9                     -1727.698          21.000    22925639.064 9                     -1336.031          20.000                                                  
G03  23759548.414 9                       919.600          19.000    23759538.365 9                       709.948          22.000                                                  
S28  38898422.971 9                      -551.904          28.000  
C07  37618142.254 8                       -38.281          25.000    37618125.848 1 151472594.926 4       -30.052          34.000  
E26  25636232.449 9                       578.619          24.000    25636238.704 8                       443.256          26.000  
S37  38085747.832 9                      -524.414          27.000  
E21  25554682.771 8                       822.181          27.000    25554679.585 4                       629.758          26.000  
E27  25626165.659 2                     -1709.471          30.000    25626168.454 1 103185956.731 3     -1309.687          36.000  
E15  28516154.083 9                     -3059.866          20.000    28516139.544 9                     -2344.976          22.000  
E14  20470322.324 1 107572260.793 3     -1506.221          35.000    20470322.543 1  82425498.711 2     -1153.944          38.000  
J07  38085738.033 9                      -560.053          23.000    38085736.423 2 155954724.370 4      -429.285          34.000  
J03  41284793.492 4                      -846.172          28.000    41284801.327 8                      -659.160          29.000  
J02  38126256.554 8                       285.097          27.000    38126259.970 2                       222.853          32.000  
E13  25211731.011 9                     -1832.082          22.000    25211733.649 8                     -1404.847          26.000  
C08                                                                  38026646.355 8                       -93.770          25.000  
R11                                                                  24263217.411 9                      2638.825          24.000  
> 2021 06 10 03 35 58.0050000  0 26                     
G01  22599288.629 2 118760053.718 4     -3130.550          33.000    22599288.231 2                     -2438.031          33.000                                                  
G07  23624970.437 1 124150053.633 3     -3546.145          36.000    23624970.937 2                     -2763.088          29.000                                                  
G28  24259772.751 4 127485948.71115      1957.792          29.000                                                                                                                  
G21  25331544.596 2                     -3719.641          28.000                                                                                                                  
G14  22830445.086 9                      1579.590          25.000    22830447.813 9                      1232.036          24.000                                                  
C13  38486177.529 9                       235.624          21.000    38486174.034 8                       175.099          26.000  
C34  25593837.737 1 133273817.132 4     -2329.015          35.000                                                                  
C11  24324567.636 4                     -1837.229          26.000    24324558.850 1  97944901.992 3     -1420.771          36.000  
R21  22612137.962 9                       132.235          25.000                                                                  
R09  21880029.803 4                     -3438.535          30.000    21880029.926 2  90874098.471 3     -2674.233          36.000  
G30  22925972.429 9                     -1711.737          20.000    22925964.424 9                     -1338.857          20.000                                                  
G03  23759374.005 9                       920.424          18.000    23759363.280 9                       693.348          20.000                                                  
S28  38898526.948 9                      -544.824          27.000  
C07  37618149.978 8                       -38.517          24.000    37618133.270 2 151472624.903 5       -30.810          32.000  
E26  25636124.359 9                       573.879          25.000    25636129.086 4                       443.106          27.000  
S37  38085853.123 8                      -549.742          29.000  
E21  25554527.640 8                       821.241          27.000    25554523.407 4                       629.302          27.000  
E27  25626491.193 2                     -1709.247          30.000    25626493.749 1 103187266.817 3     -1309.681          35.000  
E15  28516737.331 9                     -3060.125          20.000    28516724.130 9                     -2349.584          23.000  
E14  20470608.893 1 107573767.731 3     -1508.097          35.000    20470609.633 1  82426653.363 2     -1155.122          39.000  
J07  38085841.717 9                      -550.003          25.000    38085841.172 2 155955153.561 4      -428.905          34.000  
J03  41284954.919 4                      -846.247          28.000    41284961.085 8                      -659.521          30.000  
J02  38126203.998 8                       284.742          28.000    38126205.784 2                       222.777          31.000  
E13  25212079.306 9                     -1834.109          25.000    25212082.603 8                     -1405.680          26.000  
C08                                                                  38026670.526 8                       -93.190          24.000  
R20                                                                  22411468.877 8                     -2265.283          30.000  
> 2021 06 10 03 35 59.0050000  0 25                     
G01  22599884.437 2 118763184.260 5     -3131.229          35.000    22599884.006 2  92542745.043 4     -2439.666          32.000                                                  
G07  23625645.216 1 124153599.718 3     -3545.838          36.000    23625645.778 4                     -2765.225          30.000                                                  
G28  24259396.875 8                      1957.646          29.000                                                                                                                  
G21  25332252.192 2                     -3718.787          28.000                                                                                                                  
G14  22830145.024 9                      1582.160          24.000    22830147.389 8                      1229.906          24.000                                                  
C13  38486132.607 9                       231.309          22.000    38486130.172 4                       175.331          24.000  
C34  25594285.036 1 133276146.648 4     -2329.922          34.000                                                                  
C11  24324919.514 4                     -1837.601          27.000    24324911.803 1  97946322.811 4     -1421.708          33.000  
R09  21880673.568 4                     -3438.700          29.000    21880673.822 2  90876772.796 3     -2674.511          38.000  
G30  22926298.774 9                     -1714.752          20.000    22926290.010 9                     -1334.087          20.000                                                  
G03  23759198.585 9                       927.492          21.000    23759187.763 9                       721.595          20.000                                                  
S28  38898631.420 9                      -563.184          26.000  
C07  37618156.221 9                       -43.478          22.000    37618140.855 2                       -29.591          31.000  
E26  25636014.851 9                       565.290          25.000    25636022.421 4                       442.919          26.000  
S37  38085957.779 9                      -535.986          27.000  
E21  25554371.020 8                       820.947          28.000    25554368.296 4                       628.267          29.000  
E27  25626816.298 2                     -1709.651          28.000    25626819.042 1 103188576.742 3     -1309.161          36.000  
E15  28517318.473 9                     -3055.325          18.000    28517306.070 9                     -2334.530          22.000  
E14  20470896.061 1 107575276.040 4     -1508.893          35.000    20470896.571 1  82427809.079 2     -1156.453          39.000  
J07  38085946.093 9                      -554.448          24.000    38085945.867 2 155955582.309 4      -428.386          34.000  
J03  41285117.923 4                      -845.199          27.000    41285121.542 8                      -660.008          30.000  
J02  38126148.371 4                       285.541          28.000    38126151.479 2                       222.548          30.000  
E13  25212427.539 9                     -1827.691          24.000    25212432.190 9                     -1404.010          22.000  
J01  39096968.483 9                      -441.203          13.000                                                                  
C08                                                                  38026694.432 8                       -94.018          26.000  
> 2021 06 10 03 36 00.0050000  0 27                     
G01  22600480.168 2 118766315.313 5     -3130.626          32.000    22600479.795 2  92545184.935 5     -2439.786          32.000                                                  
G07  23626319.826 1 124157145.309 4     -3546.175          32.000    23626320.458 2                     -2762.199          32.000                                                  
G28  24259023.312 9                      1950.506          21.000                                                                                                                  
G22  24283750.255 9                     -1059.179          16.000                                                                                                                  
G21  25332960.096 2                     -3720.435          28.000                                                                                                                  
G14  22829843.409 9                      1580.539          21.000    22829846.999 9                      1230.514          25.000                                                  
C13  38486090.157 9                       226.394          23.000    38486087.166 9                       170.362          21.000  
C34  25594732.335 1 133278476.372 4     -2330.167          33.000                                                                  
C11  24325272.465 4                     -1838.132          26.000    24325264.772 1  97947744.072 4     -1420.740          33.000  
R09  21881317.480 4                     -3439.301          29.000    21881317.612 2  90879447.019 3     -2674.427          38.000  
G30  22926625.662 9                     -1721.114          23.000    22926616.429 9                     -1334.390          21.000                                                  
G03  23759022.874 9                       912.210          22.000    23759013.752 8                       718.186          25.000                                                  
S28  38898735.963 8                      -546.950          31.000  
C07  37618162.820 9                       -41.449          23.000    37618148.485 2                       -30.283          30.000  
E26  25635906.773 9                       564.401          22.000    25635910.187 4                       442.278          26.000  
E21  25554215.913 9                       821.888          25.000    25554212.190 9                       628.047          19.000  
E27  25627141.547 2                     -1709.737          30.000    25627144.784 1 103189886.504 2     -1309.742          40.000  
E15  28517902.279 9                     -3047.476          17.000    28517890.066 9                     -2355.410          22.000  
E14  20471182.927 1 107576785.552 4     -1510.232          35.000    20471183.677 1  82428965.728 2     -1157.272          40.000  
J07  38086051.972 9                      -544.339          21.000    38086050.374 2 155956010.488 5      -428.712          32.000  
G06  25564413.955 9                      2608.111          24.000                                                                                                                  
J03  41285280.049 8                      -846.791          27.000    41285282.017 8                      -660.011          28.000  
J02  38126093.848 8                       286.112          27.000    38126097.269 2 156120007.353 5       222.756          33.000  
E13  25212776.609 9                     -1835.816          23.000    25212778.303 8                     -1407.608          26.000  
J01  39097049.603 9                      -441.203          11.000                                                                  
C08                                                                  38026716.989 4                       -93.473          27.000  
R20                                                                  22412555.800 9                     -2265.458          29.000  
> 2021 06 10 03 36 01.0050000  0 25                     
G01  22601076.077 2                     -3130.771          32.000    22601075.718 2                     -2438.844          31.000                                                  
G07  23626994.689 2 124160690.784 4     -3545.457          36.000    23626995.074 2  96748589.61414     -2762.621          35.000                                                  
G28  24258651.472 9                      1950.528          20.000                                                                                                                  
G22  24283953.007 9                     -1060.802          18.000                                                                                                                  
G21  25333668.072 2                     -3719.873          27.000                                                                                                                  
G14  22829543.101 9                      1585.339          20.000    22829547.245 9                      1230.096          24.000                                                  
C13  38486045.852 9                       223.483          23.000    38486044.557 9                       174.680          21.000  
C34  25595179.710 1 133280806.086 5     -2328.451          33.000                                                                  
C11  24325625.322 4                     -1837.635          32.000    24325617.843 1  97949165.543 4     -1421.457          33.000  
R09  21881961.508 4                     -3438.149          28.000    21881961.653 2  90882121.474 3     -2674.188          41.000  
G30  22926952.020 9                     -1714.293          28.000    22926945.479 9                     -1335.091          23.000                                                  
G03  23758845.952 9                       916.951          21.000    23758839.149 9                       715.453          25.000                                                  
S28  38898840.382 8                      -545.092          34.000  
C07  37618170.458 9                       -44.848          22.000    37618156.048 2                       -29.353          25.000  
E26  25635798.925 9                       576.718          21.000    25635799.017 4                       441.181          25.000  
E21  25554060.161 9                       819.427          23.000    25554057.556 9                       629.231          22.000  
E27  25627466.728 2 134673266.86215     -1709.225          33.000    25627470.040 1 103191196.237 2     -1309.472          40.000  
E15  28518483.845 9                     -3054.277          17.000    28518469.750 9                     -2344.677          29.000  
E14  20471470.269 1 107578296.211 4     -1510.265          35.000    20471471.005 1  82430123.265 2     -1157.646          39.000  
J07  38086156.329 9                      -559.007          19.000    38086154.931 2                      -428.485          31.000  
J03  41285441.612 8                      -846.119          32.000    41285441.814 8                      -659.210          29.000  
J02  38126040.735 8                       286.675          28.000    38126042.888 2 156119784.496 5       222.865          34.000  
E13  25213124.074 9                     -1834.609          21.000    25213126.621 8                     -1407.783          26.000  
C08                                                                  38026740.593 4                       -93.484          27.000  
R20                                                                  22413098.375 9                     -2268.256          33.000  
> 2021 06 10 03 36 02.0050000  0 26                     
G01  22601672.138 4                     -3130.836          31.000    22601671.662 2                     -2440.446          34.000                                                  
G07  23627669.367 1 124164236.562 3     -3545.960          38.000    23627669.655 2  96751352.526 4     -2763.362          33.000                                                  
G28  24258275.973 9                      1966.815          22.000                                                                                                                  
G22  24284155.413 9                     -1057.058          18.000                                                                                                                  
G21  25334375.828 2                     -3719.488          28.000                                                                                                                  
G14  22829243.928 9                      1576.040          21.000    22829247.953 9                      1230.945          25.000                                                  
C13  38486001.847 9                       230.345          21.000    38486000.465 9                       172.244          20.000  
C34  25595626.837 1 133283135.623 4     -2330.183          32.000                                                                  
C11  24325978.978 4                     -1838.662          28.000    24325970.882 1  97950586.849 4     -1420.921          37.000  
R09  21882605.712 4                     -3439.193          29.000    21882605.697 1  90884796.142 2     -2675.229          42.000  
G30  22927277.763 8                     -1712.678          28.000    22927273.257 8                     -1342.346          26.000                                                  
G03  23758670.936 9                       932.990          20.000    23758664.905 9                       719.902          23.000                                                  
S28  38898944.872 4                      -544.993          30.000  
C07  37618178.172 9                       -39.433          22.000    37618163.528 2                       -30.984          27.000  
E26  25635689.296 9                       577.119          29.000    25635687.647 4                       441.088          31.000  
E21  25553902.707 9                       826.554          21.000    25553898.695 8                       625.355          25.000  
E27  25627792.348 2 134674976.147 4     -1709.015          33.000    25627795.554 1 103192506.053 2     -1310.062          41.000  
E15  28519064.687 9                     -3056.407          18.000    28519053.238 8                     -2347.197          24.000  
E14  20471757.542 2 107579807.651 5     -1512.404          31.000    20471758.615 1  82431281.324 2     -1158.365          42.000  
J03  41285606.784 8                      -846.571          30.000    41285604.823 4                      -659.489          32.000  
J02  38125988.419 8                       286.356          35.000    38125988.576 2 156119561.521 4       222.975          35.000  
E13  25213473.428 9                     -1837.302          19.000    25213474.870 4                     -1406.772          28.000  
J01  39097215.530 9                      -441.203          10.000                                                                  
C08                                                                  38026764.003 4                       -94.033          28.000  
R20                                                                  22413640.534 9                     -2265.521          32.000  
J07                                                                  38086259.580 2 155956866.113 5      -427.612          35.000  
> 2021 06 10 03 36 03.0050000  0 26                     
G01  22602268.072 2 118775710.936 5     -3132.048          33.000    22602267.571 2                     -2440.869          32.000                                                  
G07  23628344.175 1 124167782.548 3     -3545.999          39.000    23628344.344 2  96754115.738 5     -2763.915          32.000                                                  
G28  24257902.356 9                      1961.144          20.000                                                                                                                  
G22  24284358.097 9                     -1064.095          18.000                                                                                                                  
G21  25335083.582 2                     -3720.178          32.000                                                                                                                  
G14  22828944.101 9                      1578.849          22.000    22828948.063 8                      1228.764          25.000                                                  
C13  38485957.574 9                       228.166          21.000    38485956.015 9                       175.043          29.000  
C34  25596074.085 2                     -2330.028          29.000                                                                  
C11  24326333.829 4                     -1838.295          28.000    24326323.978 1  97952008.278 5     -1422.023          33.000  
R09  21883250.170 8                     -3440.546          28.000    21883249.863 1  90887471.391 2     -2674.753          40.000  
G30  22927603.766 8                     -1714.800          28.000    22927602.279 9                     -1335.208          26.000                                                  
G03  23758494.794 9                       927.184          20.000    23758490.952 9                       725.166          21.000                                                  
S28  38899049.273 4                      -545.381          30.000  
C07  37618186.204 9                       -34.844          23.000    37618170.959 2                       -31.089          31.000  
E26  25635573.425 8                       575.343          31.000    25635578.704 2 103223856.96015       441.823          35.000  
E21  25553745.188 9                       820.116          22.000    25553744.790 9                       627.284          26.000  
E27  25628117.530 2 134676685.855 4     -1710.683          34.000    25628120.898 1 103193816.053 2     -1310.082          40.000  
E15  28519647.477 9                     -3066.034          19.000    28519637.372 9                     -2347.078          24.000  
E14  20472045.270 2 107581319.913 5     -1513.150          34.000    20472046.835 1  82432440.057 2     -1159.492          41.000  
J07  38086366.240 9                      -555.272          22.000    38086364.123 2 155957293.826 5      -428.055          34.000  
J03  41285767.340 8                      -846.877          29.000    41285766.785 4                      -659.322          31.000  
J02  38125932.722 4 200353108.50115       285.835          35.000    38125934.092 1 156119338.605 3       223.028          38.000  
E13  25213823.774 9                     -1839.519          19.000    25213824.030 4                     -1407.103          28.000  
J01  39097294.455 9                      -441.203          15.000                                                                  
C08                                                                  38026787.383 4                       -93.716          26.000  
R20                                                                  22414186.572 8                     -2266.736          35.000  
> 2021 06 10 03 36 04.0050000  0 26                     
G01  22602864.192 2 118778843.866 4     -3132.848          34.000    22602863.659 2                     -2441.136          31.000                                                  
G07  23629018.919 1 124171328.275 3     -3544.770          35.000    23629019.066 2  96756878.664 5     -2763.428          32.000                                                  
G28  24257530.239 9                      1959.120          21.000                                                                                                                  
G22  24284561.095 9                     -1066.554          19.000                                                                                                                  
G21  25335791.518 4                     -3720.377          31.000                                                                                                                  
G14  22828644.261 9                      1573.572          22.000    22828648.117 8                      1227.152          25.000                                                  
C13  38485913.840 9                       227.964          25.000    38485911.287 8                       175.529          30.000  
C34  25596521.358 2                     -2331.164          30.000                                                                  
C11  24326687.373 4                     -1838.678          29.000    24326677.142 1  97953430.219 5     -1423.090          33.000  
R09  21883894.943 8                     -3439.038          28.000    21883893.966 1  90890146.811 2     -2674.964          42.000  
G30  22927932.084 8                     -1714.570          27.000    22927930.107 9                     -1328.021          23.000                                                  
G03  23758320.316 9                       923.069          19.000    23758315.148 9                       707.187          19.000                                                  
S28  38899153.951 2                      -546.375          33.000  
C07  37618191.792 9                       -41.903          24.000    37618178.334 2                       -29.458          31.000  
E26  25635468.210 8                       575.451          30.000    25635469.102 4                       439.896          30.000  
E21  25553588.913 8                       819.682          24.000    25553588.911 8                       624.664          30.000  
E27  25628443.004 2 134678395.710 5     -1709.980          32.000    25628446.164 1 103195126.168 2     -1309.763          40.000  
E15  28520231.183 9                     -3061.059          18.000    28520220.689 9                     -2346.602          25.000  
E14  20472333.517 2 107582833.534 4     -1514.709          34.000    20472334.612 1  82433599.907 2     -1160.459          39.000  
J07  38086471.345 9                      -549.450          24.000    38086468.435 1 155957721.328 3      -427.096          37.000  
J03  41285927.457 8                      -846.501          30.000    41285927.349 4 169058978.17515      -659.567          35.000  
J02  38125876.949 4 200352822.363 4       286.230          34.000    38125879.596 1 156119115.649 2       222.899          38.000  
E13  25214173.422 9                     -1841.967          21.000    25214175.155 4                     -1409.023          28.000  
J01  39097375.457 9                      -441.203          17.000                                                                  
C08                                                                  38026810.660 9                       -91.831          26.000  
R20                                                                  22414731.899 8                     -2269.356          32.000  
> 2021 06 10 03 36 05.0050000  0 26                     
G01  22603460.561 2 118781978.130 5     -3134.729          34.000    22603460.180 2                     -2442.868          31.000                                                  
G07  23629693.427 1 124174872.856 3     -3544.003          37.000    23629693.424 2                     -2760.783          31.000                                                  
G28  24257157.346 9                      1958.378          22.000                                                                                                                  
G22  24284762.608 9                     -1064.219          18.000                                                                                                                  
G21  25336498.592 8                     -3721.063          31.000                                                                                                                  
G14  22828344.982 9                      1568.720          22.000    22828348.692 9                      1223.460          24.000                                                  
C13  38485870.046 8                       226.971          31.000    38485867.101 4                       176.522          32.000  
C34  25596968.837 2                     -2331.317          25.000                                                                  
C11  24327039.321 8                     -1840.916          29.000    24327030.432 2  97954853.008 5     -1422.303          38.000  
R09  21884538.058 8                     -3439.091          28.000    21884537.949 2  90892821.740 2     -2674.841          42.000  
G30  22928259.226 9                     -1716.019          28.000    22928259.725 9                     -1331.403          24.000                                                  
G03  23758146.903 9                       919.903          18.000    23758142.766 9                       718.921          20.000                                                  
S28  38899258.332 2 204416970.51434      -545.619          36.000  
C07  37618198.540 9                       -38.637          25.000    37618185.742 2                       -30.506          34.000  
E26  25635358.291 8                       577.075          31.000    25635357.846 4                       440.852          31.000  
E21  25553431.468 9                       827.816          21.000    25553432.268 8                       625.843          26.000  
E27  25628768.251 2 134680105.121 5     -1709.298          33.000    25628771.327 1 103196436.042 2     -1309.640          39.000  
E15  28520811.843 9                     -3057.124          18.000    28520804.009 8                     -2346.864          24.000  
E14  20472621.920 2 107584349.228 5     -1516.455          34.000    20472622.857 1  82434761.309 3     -1162.036          38.000  
J07  38086574.980 9                      -547.788          26.000    38086572.696 1 155958148.189 3      -426.581          38.000  
J03  41286090.895 8                      -846.145          30.000    41286088.666 2 169059637.801 5      -660.469          34.000  
J02  38125822.589 4 200352535.425 4       287.944          34.000    38125824.916 1 156118892.136 4       222.925          39.000  
E13  25214523.862 9                     -1844.715          20.000    25214525.443 9                     -1398.085          24.000  
J01  39097457.543 9                      -441.203          17.000                                                                  
C08                                                                  38026834.838 9                       -86.735          23.000  
R20                                                                  22415276.407 8                     -2266.760          33.000  
> 2021 06 10 03 36 06.0050000  0 25                     
G01  22604057.240 2                     -3136.948          32.000    22604056.970 2  92559833.292 5     -2445.676          32.000                                                  
G07  23630367.682 1 124178415.916 3     -3542.174          37.000    23630367.520 4                     -2759.489          30.000                                                  
G28  24256787.578 9                      1948.335          22.000                                                                                                                  
G22  24284964.231 9                     -1064.992          17.000                                                                                                                  
G21  25337209.277 8                     -3724.396          32.000                                                                                                                  
G14  22828046.978 9                      1574.596          22.000    22828049.601 9                      1226.050          25.000                                                  
C13  38485826.167 4 200405796.59635       227.996          33.000    38485821.706 4 154966468.65135       177.080          35.000  
C34  25597416.522 2                     -2334.279          32.000                                                                  
C25  23847479.869 8                     -1963.694          36.000                                                                  
C11  24327394.010 8                     -1842.553          28.000    24327384.233 4                     -1425.070          29.000  
R09  21885181.701 8                     -3436.855          28.000    21885181.927 1  90895496.190 2     -2674.245          42.000  
G30  22928582.636 8                     -1711.208          29.000    22928583.933 9                     -1334.873          26.000                                                  
G03  23757972.990 9                       914.316          19.000    23757968.813 9                       712.223          19.000                                                  
S28  38899362.563 8                      -544.857          37.000  
C07  37618205.443 8                       -39.304          27.000    37618193.443 1 151472866.052 4       -30.805          35.000  
E26  25635246.027 8                       577.129          32.000    25635247.960 2 103222532.860 5       441.029          35.000  
E21  25553275.816 9                       810.355          23.000    25553277.423 8                       625.451          26.000  
E27  25629093.134 2 134681814.470 5     -1709.672          33.000    25629096.801 1 103197745.772 2     -1309.891          39.000  
E15  28521394.250 9                     -3064.584          19.000    28521387.191 8                     -2349.351          25.000  
E14  20472910.971 2 107585867.231 5     -1519.007          33.000    20472911.849 1  82435924.452 3     -1164.520          40.000  
J07  38086679.504 8                      -545.674          27.000    38086676.782 1 155958574.379 3      -425.610          36.000  
J03  41286249.552 4                      -848.080          30.000    41286249.792 2 169060298.100 4      -660.640          34.000  
J02  38125768.673 4 200352248.078 5       287.727          33.000    38125770.192 1 156118668.191 3       223.795          37.000  
E13  25214874.482 9                     -1845.450          21.000    25214873.885 9                     -1409.542          30.000  
C08                                                                  38026857.805 8                       -91.594          31.000  
> 2021 06 10 03 36 07.0050000  0 28                     
G01  22604654.309 2                     -3138.198          31.000    22604654.029 2  92562278.385 5     -2445.333          33.000                                                  
G07  23631041.619 1 124181957.271 5     -3539.390          34.000    23631041.391 4                     -2758.379          34.000                                                  
G28  24256415.951 9                      1951.972          22.000                                                                                                                  
G22  24285167.064 9                     -1068.453          17.000                                                                                                                  
G21  25337918.001 8                     -3724.750          32.000                                                                                                                  
G14  22827748.033 9                      1584.677          21.000    22827749.723 9                      1225.821          24.000                                                  
C13  38485782.288 4 200405567.23825       228.719          33.000    38485776.712 4 154966291.37523       177.003          36.000  
C34  25597864.740 2                     -2332.915          31.000                                                                  
C25  23847856.170 4 124182049.69834     -1964.616          38.000                                                                  
C11  24327748.353 8                     -1842.600          27.000    24327737.683 4                     -1424.551          33.000  
R09  21885825.001 8                     -3438.754          28.000    21885825.881 1  90898170.478 2     -2674.780          41.000  
G30  22928909.502 4 120492232.37735     -1715.049          38.000    22928909.414 8                     -1334.911          35.000                                                  
G03  23757798.463 9                       906.752          20.000    23757794.673 9                       721.518          19.000                                                  
G17  23915349.374 9                         7.153          23.000                                                                                                                  
S28  38899466.525 2 204418072.68535      -543.167          35.000  
C07  37618216.638 4                       -40.827          30.000    37618201.218 1 151472897.528 3       -31.242          38.000  
E26  25635132.807 8                       576.824          35.000    25635138.786 2 103222090.486 5       443.445          36.000  
S37  38086772.344 9                      -548.531          31.000  
E21  25553119.569 9                       818.441          20.000    25553122.657 9                       626.373          25.000  
E27  25629418.281 2 134683524.022 5     -1708.785          30.000    25629422.250 1 103199055.777 3     -1310.579          35.000  
E15  28521976.899 9                     -3065.474          19.000    28521969.819 8                     -2347.052          25.000  
E14  20473200.503 2 107587387.911 5     -1521.977          34.000    20473201.134 1  82437089.613 3     -1165.635          38.000  
J07  38086782.940 8                      -546.207          27.000    38086780.734 1 155959000.161 3      -425.740          38.000  
J03  41286410.908 4 216961539.95215      -848.405          33.000    41286411.439 2 169060959.242 4      -660.425          34.000  
J02  38125714.387 4                       287.331          32.000    38125715.405 1 156118444.121 3       224.264          35.000  
E13  25215223.969 9                     -1833.225          20.000    25215223.661 8                     -1409.631          30.000  
C08                                                                  38026879.545 4                       -93.772          35.000  
R20                                                                  22416369.466 8                     -2274.374          26.000  
> 2021 06 10 03 36 08.0050000  0 28                     
G01  22605251.668 2                     -3139.485          33.000    22605251.392 2  92564724.163 5     -2445.884          33.000                                                  
G07  23631715.420 2                     -3541.277          32.000    23631715.120 4  96767920.503 5     -2759.851          34.000                                                  
G28  24256044.233 9                      1965.140          21.000                                                                                                                  
G22  24285370.440 9                     -1068.564          16.000                                                                                                                  
G21  25338627.239 8                     -3722.079          22.000                                                                                                                  
G14  22827448.484 9                      1578.311          21.000    22827450.956 9                      1225.458          24.000                                                  
C13  38485738.033 4 200405337.88825       228.420          33.000    38485731.351 2 154966114.03423       176.974          35.000  
C34  25598313.009 2                     -2334.608          32.000                                                                  
C25  23848235.438 4 124184014.13423     -1964.633          38.000                                                                  
C11  24328100.509 8                     -1843.764          27.000    24328089.477 4                     -1425.028          32.000  
C08  38026916.289 8                      -122.125          31.000    38026901.587 4 153118585.89433       -94.679          38.000  
R09  21886470.334 8                     -3439.601          29.000    21886469.825 2  90900845.208 3     -2674.538          39.000  
G30  22929234.654 4 120493947.43924     -1715.704          36.000    22929234.809 8                     -1335.692          33.000                                                  
G03  23757624.520 9                       913.697          19.000    23757620.424 9                       715.232          17.000                                                  
S28  38899570.477 2 204418616.19124      -544.762          35.000  
C07  37618222.684 4 195887949.25635       -41.255          32.000    37618209.150 1 151472929.343 4       -31.643          36.000  
E26  25635023.382 4 134712954.09814       576.946          35.000    25635029.106 2 103221648.187 4       442.135          36.000  
S37  38086879.757 9                      -559.082          31.000  
E21  25552964.940 9                       812.297          21.000    25552968.591 8                       623.381          26.000  
E27  25629744.358 2                     -1709.135          28.000    25629747.612 1 103200366.291 4     -1309.954          34.000  
E15  28522559.818 9                     -3069.428          18.000    28522555.138 9                     -2358.923          22.000  
E14  20473490.072 2 107588909.985 5     -1522.470          34.000    20473490.710 1  82438255.861 3     -1166.724          38.000  
J07  38086887.146 8                      -545.773          27.000    38086884.708 1 155959426.029 3      -425.807          38.000  
G06  25560444.532 9                      2611.237          23.000                                                                                                                  
J03  41286572.258 4 216962388.753 5      -848.715          33.000    41286573.037 2 169061620.608 5      -661.673          31.000  
J02  38125659.725 4                       287.518          26.000    38125660.852 2                       222.997          31.000  
E13  25215572.319 9                     -1835.397          21.000    25215574.701 4                     -1410.284          26.000  
R20                                                                  22416914.980 9                     -2263.340          26.000  
> 2021 06 10 03 36 09.0050000  0 28                     
G01  22605849.038 2 118794529.54725     -3139.287          33.000    22605848.689 2  92567169.976 5     -2446.217          32.000                                                  
G07  23632389.454 2                     -3543.273          32.000    23632389.089 2  96770680.553 5     -2760.327          34.000                                                  
G28  24255671.356 9                      1957.765          23.000                                                                                                                  
G22  24285574.459 9                     -1077.306          17.000                                                                                                                  
G21  25339339.898 9                     -3713.692          21.000                                                                                                                  
G14  22827148.338 9                      1568.238          22.000    22827152.547 9                      1215.011          24.000                                                  
C13  38485693.250 4 200405108.61815       228.149          32.000    38485687.907 2 154965937.109 4       177.401          36.000  
C34  25598761.357 2                     -2334.583          31.000                                                                  
C25  23848612.436 4 124185979.34123     -1965.682          38.000                                                                  
C11  24328453.873 9                     -1842.454          25.000    24328444.537 8                     -1424.963          31.000  
C08  38026940.194 4                      -121.794          31.000    38026925.456 4 153118679.33113       -93.940          38.000  
R09  21887114.574 8                     -3439.301          30.000    21887113.935 2  90903520.411 3     -2674.992          41.000  
G30  22929562.691 4 120495663.69424     -1715.922          37.000    22929559.830 8                     -1337.850          33.000                                                  
G03  23757449.731 9                       921.969          17.000    23757444.022 9                       717.179          17.000                                                  
S28  38899674.649 2 204419160.37525      -543.674          33.000  
C07  37618230.885 4                       -39.534          31.000    37618216.875 1 151472960.955 4       -33.059          35.000  
E26  25634916.787 4 134712377.922 4       575.581          37.000    25634918.822 2 103221206.640 4       441.389          36.000  
S37  38086983.452 9                      -549.365          30.000  
E21  25552811.928 9                       803.978          19.000    25552814.547 9                       624.770          25.000  
E27  25630071.834 9                     -1714.154          20.000    25630073.333 2                     -1310.476          31.000  
E15  28523143.310 9                     -3051.743          16.000    28523140.506 9                     -2341.041          21.000  
E14  20473779.504 2 107590432.625 5     -1523.525          34.000    20473780.357 1  82439422.618 3     -1167.082          39.000  
J07  38086991.816 8                      -546.036          26.000    38086988.710 1 155959851.830 3      -426.294          35.000  
G06  25559946.621 9                      2607.482          26.000                                                                                                                  
J03  41286733.737 2                      -848.283          32.000    41286734.687 2 169062281.728 5      -662.567          33.000  
J02  38125605.145 4                       287.987          26.000    38125606.260 2                       223.745          31.000  
E13  25215923.858 9                     -1843.367          22.000    25215923.602 4                     -1405.356          28.000  
R20                                                                  22417461.048 9                     -2272.447          26.000  
> 2021 06 10 03 36 10.0050000  0 30                     
G01  22606446.354 2 118797668.48925     -3139.049          33.000    22606446.057 2                     -2445.615          34.000                                                  
G07  23633063.437 2 124192583.006 5     -3541.935          35.000    23633063.289 2  96773440.690 4     -2760.117          33.000                                                  
G28  24255300.773 9                      1950.197          22.000                                                                                                                  
G22  24285778.814 9                     -1072.098          15.000                                                                                                                  
G21  25340050.486 9                     -3719.921          20.000                                                                                                                  
G14  22826849.054 9                      1571.906          20.000    22826853.308 9                      1232.985          22.000                                                  
C13  38485649.246 4 200404879.887 5       228.675          32.000    38485644.582 2 154965760.219 4       177.883          36.000  
C34  25599209.699 2                     -2334.526          27.000                                                                  
C25  23848988.447 4 124187944.39713     -1965.469          37.000                                                                  
C11  24328806.690 8                     -1844.263          27.000    24328799.308 4                     -1424.563          35.000  
C08  38026963.316 4                      -122.495          31.000    38026948.972 2 153118773.354 3       -93.854          38.000  
R09  21887759.528 8                     -3439.668          30.000    21887758.123 2  90906195.905 3     -2675.384          41.000  
G30  22929889.973 4 120497380.59323     -1716.989          37.000    22929887.026 8                     -1336.210          32.000                                                  
G03  23757274.206 9                       923.977          15.000    23757270.380 9                       712.011          16.000                                                  
G17  23915347.841 9                         5.992          26.000                                                                                                                  
S28  38899778.589 1 204419704.45824      -543.947          36.000  
C07  37618236.085 4                       -41.806          31.000    37618224.782 1 151472992.478 4       -31.280          38.000  
E26  25634807.752 4 134711802.124 4       575.716          34.000    25634809.352 1 103220765.484 5       440.613          35.000  
S37  38087087.792 8                      -546.259          31.000  
E21  25552657.208 9                       807.174          18.000    25552658.410 8                       623.561          25.000  
E15  28523724.868 9                     -3061.944          13.000    28523724.017 9                     -2357.191          17.000  
E14  20474069.329 2 107591956.139 4     -1523.048          34.000    20474070.242 1  82440589.872 3     -1167.109          39.000  
J07  38087095.973 8                      -546.056          27.000    38087092.709 1 155960277.439 3      -426.020          38.000  
J03  41286895.276 2 216964085.142 5      -848.214          33.000    41286896.066 2                      -659.511          34.000  
J02  38125550.299 2                       288.836          27.000    38125551.479 2                       223.161          32.000  
E13  25216273.100 9                     -1839.905          30.000    25216274.042 4                     -1410.358          28.000  
E27                                                                  25630398.606 2                     -1310.190          31.000  
R21                                                                  22611825.492 8  94111457.54534        96.870          37.000  
R20                                                                  22418007.356 9                     -2271.027          28.000  
R11                                                                  24254976.345 9                      2639.813          31.000  
> 2021 06 10 03 36 11.0050000  0 31                     
G01  22607043.773 2 118800808.45425     -3140.463          33.000    22607043.579 2  92572062.607 5     -2447.486          34.000                                                  
G07  23633737.390 2 124196124.463 5     -3540.466          32.000    23633736.887 4  96776200.262 5     -2759.515          33.000                                                  
G28  24254929.883 9                      1952.852          22.000                                                                                                                  
G22  24285984.164 9                     -1074.113          15.000                                                                                                                  
G14  22826548.951 9                      1574.475          19.000    22826552.635 9                      1230.375          20.000                                                  
C13  38485605.488 2 200404650.527 5       229.962          33.000    38485600.507 1 154965582.939 4       177.211          36.000  
C34  25599658.218 2                     -2335.417          27.000                                                                  
C25  23849366.823 2 124189909.800 3     -1964.724          37.000                                                                  
C11  24329164.289 8                     -1843.563          28.000    24329152.119 4                     -1425.895          35.000  
C08  38026985.856 4                      -121.425          32.000    38026972.939 2 153118867.189 3       -93.865          38.000  
R21  22611813.813 9                       129.044          29.000    22611799.371 8  94111359.99125        98.661          38.000  
R10  20922640.403 9                       301.157          30.000                                                                  
R09  21888402.897 8                     -3440.498          30.000    21888402.315 2  90908871.505 2     -2675.493          41.000  
G30  22930215.571 4 120499097.06723     -1715.619          39.000    22930212.736 8                     -1336.835          32.000                                                  
G03  23757099.150 9                       917.746          15.000    23757095.181 9                       715.990          29.000                                                  
G17  23915345.627 9                         5.222          26.000                                                                                                                  
G08  26573305.224 9                     -2381.375          10.000                                                                                                                  
S28  38899882.325 1 204420247.47424      -542.313          35.000  
C07  37618244.358 4                       -41.953          31.000    37618232.571 1 151473024.108 4       -31.906          35.000  
E26  25634697.894 4 134711225.726 4       576.896          35.000    25634699.783 1 103220323.883 5       441.562          36.000  
S37  38087191.919 8                      -545.596          31.000  
E21  25552501.345 9                       812.898          19.000    25552502.624 8                       623.228          32.000  
E27  25630724.846 8                     -1710.992          29.000    25630723.918 1 103204297.625 4     -1309.750          36.000  
E15  28524308.541 9                     -3061.944          12.000    28524311.493 9                     -2348.927          17.000  
E14  20474359.295 2 107593481.182 5     -1525.683          34.000    20474360.391 1  82441758.437 3     -1168.901          38.000  
J07  38087200.796 8                      -545.933          27.000    38087196.592 1 155960702.774 3      -424.932          38.000  
J03  41287056.846 2                      -848.336          33.000    41287057.468 2                      -660.551          33.000  
J02  38125495.666 2                       286.609          29.000    38125496.636 2 156117548.299 5       224.137          33.000  
E13  25216622.464 8 132514245.29515     -1841.536          35.000    25216624.454 2                     -1411.170          30.000  
R20                                                                  22418555.519 9                     -2274.310          28.000  
R11                                                                  24254345.774 9                      2634.477          30.000  
> 2021 06 10 03 36 12.0050000  0 29                     
G01  22607641.238 2 118803948.82725     -3139.913          33.000    22607641.184 2                     -2446.937          31.000                                                  
G07  23634411.221 2                     -3541.160          28.000    23634410.589 4  96778959.752 5     -2759.950          34.000                                                  
G28  24254557.363 9                      1964.219          21.000                                                                                                                  
G22  24286187.378 9                     -1038.697          11.000                                                                                                                  
G14  22826249.356 9                      1563.724          18.000    22826253.481 9                      1221.845          21.000                                                  
C13  38485561.353 2 200404420.947 5       229.940          33.000    38485556.452 1 154965405.416 4       177.106          36.000  
C34  25600106.030 4                     -2325.969          25.000                                                                  
C25  23849744.686 2 124191875.435 3     -1965.795          37.000                                                                  
C11  24329517.955 8                     -1843.594          28.000    24329507.111 2  97964840.85633     -1425.705          39.000  
C08  38027009.287 4 198016617.61115      -121.410          32.000    38026996.269 2 153118960.982 2       -94.213          38.000  
R21  22611787.513 9                       125.536          27.000    22611774.683 8  94111262.39125        96.575          33.000  
R10  20922583.825 8                       300.151          31.000                                                                  
R09  21889047.425 8                     -3440.331          30.000    21889046.586 2  90911547.497 3     -2675.726          39.000  
G30  22930542.405 2 120500813.64923     -1716.700          37.000    22930540.589 4  93896737.73015     -1338.319          33.000                                                  
G03  23756923.504 9                       918.428          30.000    23756916.582 8  97280617.03315       716.085          36.000                                                  
G17  23915342.949 8                         4.622          32.000    23915345.642 9                         1.419          25.000                                                  
S28  38899986.023 1 204420789.95824      -542.830          37.000  
C07  37618252.772 4                       -40.158          29.000    37618240.480 1 151473055.831 4       -31.280          34.000  
E26  25634586.792 4 134710649.183 4       576.566          35.000    25634590.257 1 103219882.038 4       441.638          36.000  
S37  38087295.812 4                      -545.425          31.000  
E21  25552345.461 8                       813.039          25.000    25552346.442 4                       623.534          34.000  
E27  25631046.670 8                     -1711.523          30.000    25631049.506 1 103205608.629 3     -1311.264          41.000  
E14  20474649.702 1 107595007.230 4     -1526.485          35.000    20474650.963 1  82442927.763 3     -1169.918          36.000  
J07  38087305.619 8                      -545.022          27.000    38087300.454 1 155961128.032 3      -424.881          38.000  
J03  41287218.417 2                      -848.372          29.000    41287218.984 4                      -660.756          29.000  
J02  38125440.955 4                       288.488          30.000    38125441.877 2 156117324.172 5       225.485          34.000  
E13  25216971.761 4 132516086.584 4     -1840.944          35.000    25216974.753 2 101538307.55714     -1411.552          36.000  
E15                                                                  28524895.157 9                     -2348.927          16.000  
R20                                                                  22419102.557 9                     -2270.398          27.000  
> 2021 06 10 03 36 13.0050000  0 29                     
G01  22608238.580 2                     -3137.958          27.000    22608238.787 2                     -2445.922          30.000                                                  
G07  23635085.511 4                     -3546.030          30.000    23635084.768 2  96781721.240 5     -2763.851          34.000                                                  
G28  24254185.092 9                      1953.084          21.000                                                                                                                  
G14  22825951.615 9                      1580.821          20.000    22825953.925 9                      1225.556          20.000                                                  
C13  38485517.532 2                       227.045          33.000    38485512.718 1 154965229.111 3       174.741          36.000  
C34  25600553.781 9                     -2329.757          23.000                                                                  
C25  23850122.136 2 124193842.512 3     -1968.019          37.000                                                                  
C11  24329872.604 4                     -1839.844          30.000    24329861.214 2  97966264.91523     -1422.206          39.000  
C08  38027033.947 4 198016739.594 5      -122.404          31.000    38027018.982 1 153119055.314 3       -94.456          38.000  
R21  22611763.178 9                       122.997          27.000                                                                  
R10  20922525.829 8                       301.343          31.000                                                                  
R09  21889692.183 4                     -3444.918          30.000    21889691.294 1  90914225.325 3     -2678.983          38.000  
G30  22930869.312 1 120502531.524 3     -1718.640          37.000    22930867.474 4  93898076.347 5     -1339.396          33.000                                                  
G03  23756746.219 8                       915.766          34.000    23756741.090 8  97279902.572 4       713.082          34.000                                                  
G17  23915341.520 8                         8.257          33.000    23915342.980 9                         4.913          28.000                                                  
G19  25164838.094 4                      1058.312          26.000                                                                                                                  
S28  38900089.798 1 204421333.29924      -543.078          36.000  
C07  37618261.333 4                       -39.624          29.000    37618247.993 1 151473087.012 4       -30.408          33.000  
E26  25634477.048 4 134710073.544 4       574.435          35.000    25634480.845 1 103219441.001 3       440.085          38.000  
S37  38087400.082 8                      -549.179          31.000  
E21  25552188.389 8                       816.011          32.000    25552193.362 2 102888090.07614       625.779          38.000  
E27  25631368.283 8                     -1713.899          30.000    25631375.213 1 103206920.538 3     -1313.043          39.000  
E14  20474939.959 2 107596532.581 5     -1523.805          32.000    20474941.306 1  82444096.509 3     -1167.903          33.000  
J07  38087408.961 8                      -548.254          27.000    38087404.562 1 155961554.231 3      -426.769          38.000  
J03  41287379.555 2                      -845.238          27.000    41287380.257 2                      -659.040          29.000  
J02  38125386.461 4                       285.203          30.000    38125387.254 2 156117100.936 5       222.783          34.000  
E13  25217322.455 4 132517926.764 4     -1838.807          35.000    25217324.891 2 101539717.515 3     -1409.124          35.000  
E15                                                                  28525480.312 9                     -2350.899          15.000  
R20                                                                  22419648.904 9                     -2266.455          26.000  
> 2021 06 10 03 36 14.0050000  0 29                     
G01  22608835.796 2                     -3137.911          27.000    22608835.941 4                     -2445.572          28.000                                                  
G07  23635760.316 4                     -3545.022          31.000    23635759.519 2  96784484.718 5     -2764.559          33.000                                                  
G28  24253814.021 9                      1949.183          20.000                                                                                                                  
G22  24286592.532 9                     -1067.877          14.000                                                                                                                  
G14  22825651.628 9                      1577.803          21.000    22825654.085 9                      1225.851          29.000                                                  
C13  38485474.128 2 200403966.559 5       226.512          33.000    38485469.258 1 154965054.007 3       175.775          36.000  
C34  25601002.607 9                     -2336.109          21.000                                                                  
C25  23850500.164 1 124195811.147 3     -1968.623          37.000                                                                  
C11  24330225.140 4                     -1839.401          31.000    24330214.447 2  97967687.64422     -1422.777          41.000  
C08  38027057.666 4                      -122.849          31.000    38027042.592 1 153119150.387 3       -94.991          39.000  
R10  20922471.127 8                       300.599          30.000                                                                  
R09  21890337.149 4                     -3446.615          31.000    21890336.463 2  90916905.000 3     -2679.351          40.000  
G30  22931196.580 1 120504250.842 3     -1720.236          37.000    22931194.779 4  93899416.013 4     -1340.289          34.000                                                  
G03  23756567.714 8                       916.685          32.000    23756565.773 8  97279188.902 4       713.702          36.000                                                  
G17  23915338.315 4 125675960.16115         7.436          33.000    23915340.900 8                         5.616          28.000                                                  
G19  25164638.494 8                      1056.702          32.000                                                                                                                  
G08  26574669.313 9                     -2381.375          13.000                                                                                                                  
S28  38900193.740 1 204421877.642 4      -544.570          36.000  
C07  37618268.804 4                       -39.190          31.000    37618255.722 1 151473117.719 4       -30.948          34.000  
E26  25634367.733 2 134709498.961 4       574.439          35.000    25634371.581 1 103219000.770 3       439.433          37.000  
S37  38087504.275 4                      -547.745          31.000  
E21  25552034.711 8 134276850.55515       815.411          32.000    25552036.364 2 102887464.957 2       624.804          39.000  
E27  25631697.808 8                     -1713.283          30.000    25631701.299 1 103208233.351 2     -1312.913          40.000  
E14  20475230.170 2                     -1525.611          32.000    20475231.547 1  82445264.737 3     -1169.158          34.000  
J07  38087513.869 8                      -547.983          27.000    38087508.794 1 155961981.305 3      -426.705          38.000  
J03  41287540.566 2                      -846.253          27.000    41287541.249 4                      -659.187          28.000  
J02  38125332.303 2                       284.732          31.000    38125332.855 2 156116878.460 4       222.046          35.000  
E13  25217673.882 4 132519765.843 4     -1839.432          35.000    25217675.244 2 101541126.725 4     -1409.251          35.000  
E15                                                                  28526066.497 9                     -2350.899          13.000  
> 2021 06 10 03 36 15.0050000  0 30                     
G01  22609431.858 9                     -3139.000          25.000    22609433.947 9                     -2446.104          25.000                                                  
G07  23636435.206 4                     -3546.744          32.000    23636434.459 2  96787247.990 5     -2763.692          33.000                                                  
G28  24253440.639 9                      1956.141          18.000                                                                                                                  
G22  24286795.886 9                     -1056.625          15.000                                                                                                                  
G14  22825352.515 9                      1574.268          25.000    22825354.256 8                      1226.246          29.000                                                  
C13  38485430.625 2 200403740.072 5       226.723          33.000    38485425.812 1 154964878.893 3       175.433          35.000  
C34  25601452.251 9                     -2332.885          20.000                                                                  
C25  23850878.397 1 124197780.036 3     -1968.992          37.000                                                                  
C11  24330577.700 4 126695688.51815     -1840.323          32.000    24330567.266 2  97969110.486 3     -1422.536          39.000  
C08  38027081.405 2                      -123.654          31.000    38027066.235 1 153119245.384 3       -95.089          37.000  
R10  20922413.565 8                       300.582          31.000                                                                  
R09  21890982.370 4                     -3446.443          31.000    21890981.624 2  90919584.692 2     -2680.192          41.000  
G30  22931523.777 1 120505970.823 3     -1720.511          37.000    22931522.124 2  93900756.228 5     -1340.709          31.000                                                  
G03  23756393.342 8                       914.703          31.000    23756393.215 8  97278474.947 3       714.132          32.000                                                  
G17  23915337.841 4                         8.220          32.000    23915334.236 8                         4.533          28.000                                                  
G19  25164439.508 8                      1056.109          25.000                                                                                                                  
G08  26575125.069 9                     -2381.375          12.000                                                                                                                  
S28  38900297.773 1 204422421.923 4      -544.850          36.000  
C07  37618276.503 2                       -39.520          31.000    37618263.151 1 151473148.290 4       -30.521          35.000  
E26  25634258.753 1 134708924.882 4       574.059          35.000    25634262.206 1 103218560.884 3       439.948          35.000  
S37  38087608.583 4                      -546.589          31.000  
E21  25551877.720 8 134276035.153 5       815.418          32.000    25551881.491 2 102886840.209 2       624.500          39.000  
E27  25632023.187 8 134697216.70115     -1713.319          31.000    25632027.353 1 103209545.912 2     -1312.433          39.000  
E14  20475520.577 9                     -1527.811          25.000    20475521.897 1  82446433.519 5     -1168.746          30.000  
J07  38087616.735 8                      -547.344          28.000    38087613.102 1 155962407.973 3      -426.879          37.000  
J03  41287701.424 2                      -844.933          27.000    41287702.158 2                      -658.671          27.000  
J02  38125277.904 2 200349665.150 5       287.448          32.000    38125278.394 1 156116655.566 3       222.970          35.000  
E13  25218023.733 4 132521605.258 5     -1840.107          34.000    25218025.330 2 101542536.110 3     -1409.276          36.000  
E15                                                                  28526660.712 9                     -2340.680          16.000  
R21                                                                  22611702.755 8  94110946.00915        96.317          34.000  
> 2021 06 10 03 36 16.0050000  0 32                     
G01  22610029.205 9                     -3125.163          22.000    22610031.813 9                     -2452.117          24.000                                                  
G07  23637110.172 2                     -3547.089          35.000    23637109.268 2  96790011.692 5     -2764.649          32.000                                                  
G28  24253070.123 9                      1957.604          17.000                                                                                                                  
G22  24286998.318 9                     -1071.316          19.000                                                                                                                  
G14  22825052.550 8                      1573.592          28.000    22825053.787 8                      1226.328          28.000                                                  
C13  38485387.120 2 200403513.923 5       226.587          32.000    38485382.433 1 154964704.012 3       174.760          35.000  
C34  25601900.841 9                     -2330.915          18.000                                                                  
C25  23851256.654 1 124199749.405 3     -1970.050          36.000                                                                  
C11  24330930.308 4 126697528.103 4     -1839.561          34.000    24330920.800 1  97970532.951 3     -1422.627          37.000  
C23  24799445.581 9                       979.164          34.000                                                                  
C08  38027104.824 2                      -122.476          30.000    38027089.954 1 153119340.459 3       -95.331          37.000  
R10  20922357.169 8                       297.902          31.000                                                                  
R09  21891627.629 4                     -3446.463          30.000    21891627.086 1  90922264.696 2     -2680.268          43.000  
G30  22931851.200 1 120507691.568 3     -1721.297          37.000    22931849.700 2  93902097.064 5     -1342.067          32.000                                                  
G03  23756217.443 8                       916.016          29.000    23756218.840 8                       713.098          30.000                                                  
G17  23915335.828 4 125675945.988 5         6.865          35.000    23915333.062 8                         5.237          28.000                                                  
G19  25164239.610 8                      1055.322          25.000                                                                                                                  
G08  26575577.021 9                     -2381.375          10.000                                                                                                                  
S28  38900401.879 1 204422966.683 3      -545.702          36.000  
C07  37618283.897 2                       -39.870          31.000    37618270.655 1 151473178.500 3       -30.524          36.000  
E26  25634149.761 1 134708351.467 3       572.746          35.000    25634153.021 1 103218121.495 3       439.091          38.000  
S37  38087712.855 4                      -548.162          31.000  
E21  25551723.157 8 134275219.816 5       814.918          32.000    25551725.931 1 102886215.452 2       624.453          37.000  
E27  25632350.082 8 134698929.693 5     -1713.093          33.000    25632353.354 1 103210858.498 2     -1312.660          40.000  
E14  20475812.453 9                     -1522.165          23.000    20475811.877 9                     -1165.503          22.000  
J07  38087720.509 8                      -547.874          28.000    38087717.231 1 155962834.466 3      -427.429          36.000  
J03  41287862.233 2                      -844.913          26.000    41287862.804 2                      -658.283          27.000  
J02  38125223.634 2 200349378.969 5       286.083          33.000    38125223.957 1 156116432.535 3       222.550          36.000  
E13  25218371.586 4                     -1839.881          32.000    25218375.407 1 101543945.321 3     -1409.185          37.000  
E15                                                                  28527248.403 9                     -2333.717          20.000  
R21                                                                  22611679.825 4  94110849.901 4        95.607          37.000  
R20                                                                  22421278.440 9                     -2268.603          31.000  
> 2021 06 10 03 36 17.0050000  0 31                     
G01  22610625.637 9                     -3161.110          19.000    22610629.526 9                     -2445.594          21.000                                                  
G07  23637785.107 1 124217396.117 5     -3546.941          36.000    23637784.132 2                     -2763.261          29.000                                                  
G28  24252700.110 9                      1959.437          17.000                                                                                                                  
G22  24287201.871 9                     -1067.872          30.000                                                                                                                  
G14  22824752.505 8                      1570.719          30.000    22824753.930 8                      1224.456          31.000                                                  
C13  38485343.847 2 200403288.199 5       225.418          33.000    38485339.068 1 154964529.481 3       173.805          36.000  
C34  25602348.063 9                     -2315.539          17.000                                                                  
C25  23851634.971 1 124201719.313 3     -1969.958          36.000                                                                  
C11  24331283.745 2                     -1840.063          32.000    24331274.093 1  97971955.360 3     -1422.719          38.000  
C23  24799257.638 8 129136240.83534       977.774          35.000                                                                  
C08  38027128.524 2                      -123.669          30.000    38027113.610 1 153119435.688 3       -95.900          38.000  
R21  22611669.699 9                       121.411          25.000    22611656.988 2  94110754.767 3        93.626          37.000  
R10  20922302.025 4                       296.767          31.000                                                                  
R09  21892272.813 4                     -3446.345          30.000    21892272.416 2  90924944.984 2     -2680.107          42.000  
G30  22932178.863 1 120509413.508 4     -1722.690          34.000    22932177.293 2  93903438.747 5     -1341.331          32.000                                                  
G03  23756043.396 8                       919.299          31.000    23756044.888 4  97277046.546 5       714.501          34.000                                                  
G17  23915333.337 4 125675939.575 5         5.757          32.000    23915332.976 8                         3.905          28.000                                                  
G19  25164038.969 9                      1056.304          25.000                                                                                                                  
S28  38900506.068 1 204423512.116 4      -546.634          37.000  
C07  37618291.354 2                       -37.911          30.000    37618278.071 1 151473208.416 3       -29.154          37.000  
E26  25634041.132 1 134707778.958 5       572.033          34.000    25634044.146 1 103217682.847 3       437.587          37.000  
S37  38087817.080 4                      -545.887          31.000  
E21  25551568.550 8 134274404.901 5       814.006          32.000    25551571.430 1 102885591.031 2       623.617          37.000  
E27  25632677.375 4 134700642.508 5     -1711.574          33.000    25632679.310 1 103212170.985 2     -1312.250          40.000  
E14  20476103.405 9                     -1523.863          21.000    20476103.026 9                     -1173.495          21.000  
J07  38087825.046 8                      -545.786          27.000    38087821.285 1 155963260.614 3      -425.615          36.000  
J03  41288022.856 2                      -844.464          27.000    41288023.564 2                      -657.520          33.000  
J02  38125168.926 2 200349092.321 5       287.748          33.000    38125169.343 1 156116209.164 3       223.949          36.000  
E13  25218722.916 4                     -1840.169          29.000    25218725.691 1 101545354.661 2     -1410.042          38.000  
E15                                                                  28527831.011 9                     -2349.205          19.000  
R20                                                                  22421823.649 8                     -2269.812          34.000  
> 2021 06 10 03 36 18.0050000  0 32                     
G01  22611226.215 9                     -3136.681          21.000    22611226.212 9                     -2444.421          29.000                                                  
G07  23638460.134 2 124220943.280 5     -3547.040          34.000    23638459.080 2                     -2764.580          33.000                                                  
G28  24252327.591 9                      1970.788          19.000                                                                                                                  
G22  24287400.533 8                     -1064.852          30.000                                                                                                                  
G21  25345719.218 9                     -3706.585          19.000                                                                                                                  
G14  22824455.692 8 119943324.16535      1572.472          33.000    22824455.509 8  93462332.75015      1224.130          32.000                                                  
C13  38485300.622 2 200403063.072 4       224.917          34.000    38485295.866 1 154964355.400 3       173.467          36.000  
C34  25602794.828 9                     -2319.937          16.000                                                                  
C25  23852013.288 1 124203689.807 3     -1970.967          36.000                                                                  
C11  24331637.038 2                     -1838.699          25.000    24331627.454 1  97973378.012 5     -1422.552          31.000  
C23  24799069.169 4 129135263.81225       976.017          35.000                                                                  
C08  38027152.264 2                      -122.719          31.000    38027137.365 1 153119530.990 3       -95.977          38.000  
R21  22611645.972 9                       119.078          26.000    22611634.616 2  94110661.837 4        93.267          37.000  
R10  20922246.823 4                       294.868          30.000                                                                  
R09  21892918.240 4                     -3446.608          30.000    21892917.805 2  90927624.846 2     -2680.252          43.000  
R20  22422359.956 9                     -2918.000          13.000    22422372.118 8  93257488.30435     -2269.788          34.000  
G30  22932506.967 1 120511137.422 3     -1724.809          37.000    22932505.376 2  93904782.082 5     -1343.518          33.000                                                  
G03  23755868.677 4                       918.304          34.000    23755870.319 4                       716.851          30.000                                                  
G17  23915333.331 4                         4.283          32.000    23915330.807 8                         3.748          27.000                                                  
G19  25163838.969 9                      1056.304          25.000                                                                                                                  
S28  38900610.294 1 204424059.099 4      -547.943          36.000  
C07  37618299.010 2                       -37.966          31.000    37618285.406 1 151473237.885 3       -29.280          37.000  
E26  25633932.542 1 134707208.532 5       569.962          34.000    25633935.605 1 103217245.740 3       436.102          37.000  
S37  38087920.946 4                      -546.370          31.000  
E21  25551413.584 4                       813.357          31.000    25551416.504 1 102884967.436 3       623.827          38.000  
E27  25633002.602 4 134702354.115 5     -1712.119          32.000    25633004.921 1 103213482.399 3     -1311.379          39.000  
E14  20476394.684 9                     -1518.404          22.000    20476392.840 8                     -1168.148          34.000  
J07  38087927.913 8                      -546.493          27.000    38087925.196 1 155963685.932 4      -426.066          36.000  
J03  41288183.555 2                      -843.522          33.000    41288184.009 2 169068215.642 5      -656.528          33.000  
J02  38125114.275 2 200348804.433 5       287.192          33.000    38125114.543 1 156115984.813 3       224.463          36.000  
E13  25219072.745 4                     -1839.522          31.000    25219075.860 1 101546764.342 3     -1409.424          38.000  
E15                                                                  28528413.500 9                     -2340.805          23.000  
> 2021 06 10 03 36 19.0050000  0 32                     
G01  22611822.805 9                     -3135.735          24.000    22611822.063 8                     -2443.673          29.000                                                  
G07  23639135.489 2                     -3548.867          31.000    23639134.480 2                     -2766.067          28.000                                                  
G28  24251957.711 9                      1959.552          17.000                                                                                                                  
G22  24287604.654 8                     -1065.936          26.000                                                                                                                  
G21  25346427.208 9                     -3709.998          22.000                                                                                                                  
G14  22824157.366 4 119941756.27725      1571.573          33.000    22824155.847 4  93461107.962 5      1222.686          32.000                                                  
C13  38485257.660 2                       224.204          33.000    38485252.951 1 154964182.351 4       172.042          35.000  
C34  25603244.341 9                     -2329.850          17.000                                                                  
C25  23852391.982 1 124205661.661 3     -1971.951          37.000                                                                  
C11  24331990.163 2                     -1837.266          26.000    24331980.638 1  97974799.764 5     -1421.481          32.000  
C23  24798882.542 2 129134287.35424       975.297          35.000                                                                  
C08  38027175.963 2                      -122.987          32.000    38027161.189 1 153119626.728 3       -94.717          37.000  
R21  22611622.500 9                       116.097          28.000    22611612.542 2  94110570.126 4        90.803          36.000  
R10  20922191.458 4                       296.291          30.000                                                                  
R09  21893563.888 2 116910407.09115     -3446.563          32.000    21893563.229 1  90930305.698 2     -2680.656          41.000  
R20  22422904.041 9                     -2904.583          15.000    22422919.436 8                     -2270.551          30.000  
G30  22932835.320 1 120512863.128 5     -1726.761          36.000    22932833.765 2                     -1346.339          32.000                                                  
G03  23755693.283 4 124837040.40015       919.904          33.000    23755695.391 2                       717.696          35.000                                                  
G17  23915332.722 2 125675931.543 5         3.043          33.000    23915330.257 8                         2.419          27.000                                                  
G19  25163641.839 9                      1056.304          22.000                                                                                                                  
S28  38900714.838 1 204424607.267 3      -549.479          36.000  
C07  37618306.445 4                       -37.553          31.000    37618292.484 1 151473266.739 3       -28.302          37.000  
E26  25633824.323 1 134706639.708 5       567.516          33.000    25633827.248 1 103216809.837 4       435.113          34.000  
S37  38088024.769 4                      -545.643          31.000  
E21  25551258.004 4                       814.295          30.000    25551261.760 1 102884343.676 3       622.823          38.000  
E27  25633328.044 2 134704065.869 4     -1710.260          35.000    25633330.385 1 103214793.951 3     -1310.372          36.000  
E14  20476684.374 9                     -1525.406          25.000    20476682.953 4                     -1170.002          33.000  
J07  38088030.133 8                      -546.377          27.000    38088029.065 1 155964111.451 3      -424.802          36.000  
J03  41288343.637 4                      -840.863          31.000    41288344.331 2 169068871.799 5      -655.416          32.000  
J02  38125059.453 2 200348516.626 5       287.914          33.000    38125059.778 1 156115760.547 3       225.064          36.000  
E13  25219422.969 2                     -1839.325          32.000    25219425.648 1 101548173.545 3     -1408.839          37.000  
E15                                                                  28528995.361 9                     -2337.697          21.000  
> 2021 06 10 03 36 20.0050000  0 31                     
G01  22612418.738 8                     -3135.487          25.000    22612418.479 8                     -2442.607          28.000                                                  
G07  23639810.855 8                     -3553.286          27.000    23639809.992 4                     -2767.141          28.000                                                  
G28  24251587.055 9                      1946.758          17.000                                                                                                                  
G22  24287808.353 8 127633293.78135     -1059.922          35.000                                                                                                                  
G21  25347133.311 9                     -3702.537          20.000                                                                                                                  
G14  22823857.376 8 119940185.36225      1571.536          33.000    22823856.564 4  93459883.713 5      1225.070          33.000                                                  
C13  38485214.788 2                       220.633          32.000    38485210.258 1 154964010.593 4       171.648          35.000  
C34  25603692.916 9                     -2328.716          19.000                                                                  
C25  23852770.875 1 124207634.753 3     -1973.602          36.000                                                                  
C11  24332343.125 8                     -1837.853          26.000    24332333.621 2                     -1421.462          34.000  
C23  24798695.133 2                       972.717          33.000                                                                  
C08  38027199.851 2 198017603.116 5      -124.795          32.000    38027185.174 1 153119722.959 3       -96.193          36.000  
R21  22611600.409 8                       112.316          27.000    22611591.334 2  94110481.389 5        86.819          35.000  
R10  20922136.342 4                       294.794          29.000                                                                  
R09  21894209.340 2 116913853.789 4     -3447.079          33.000    21894208.529 1  90932986.365 2     -2680.485          40.000  
R20  22423443.605 9                     -2904.583          12.000                                                                  
G30  22933164.311 1 120514592.148 4     -1730.876          35.000    22933162.825 2  93907474.091 5     -1347.885          32.000                                                  
G03  23755518.034 2 124836118.905 4       922.864          34.000    23755520.044 2                       719.998          31.000                                                  
G17  23915332.493 2                         0.180          32.000    23915330.137 8                         1.030          27.000                                                  
S28  38900819.939 2 204425158.491 5      -551.718          33.000  
C07  37618314.524 4                       -35.233          31.000    37618299.558 1 151473294.686 3       -27.938          38.000  
E26  25633716.584 2 134706074.182 5       563.719          33.000    25633719.827 1 103216376.460 4       432.218          37.000  
S37  38088128.612 2                      -545.392          32.000  
E21  25551103.944 4                       812.953          31.000    25551106.960 1 102883720.661 3       623.134          36.000  
E27  25633653.924 2 134705776.300 4     -1708.955          35.000    25633655.898 1 103216104.583 4     -1310.211          38.000  
E14  20476973.745 8                     -1525.458          25.000    20476972.383 4                     -1168.478          33.000  
J07  38088134.077 8                      -544.895          28.000    38088132.846 1 155964536.251 3      -424.369          36.000  
J03  41288503.559 4                      -839.173          30.000    41288504.326 2 169069526.608 4      -653.832          35.000  
J02  38125004.308 2 200348227.558 5       289.521          33.000    38125004.791 1 156115535.245 3       226.340          36.000  
E13  25219772.790 2                     -1838.981          32.000    25219775.463 1 101549582.665 3     -1409.112          37.000  
E15                                                                  28529576.467 9                     -2329.888          20.000  
> 2021 06 10 03 36 21.0050000  0 31                     
G01  22613014.636 9                     -3132.953          23.000    22613014.552 8                     -2442.830          27.000                                                  
G07  23640486.305 8                     -3553.424          29.000    23640485.858 4                     -2768.128          27.000                                                  
G28  24251215.565 9                      1963.959          17.000                                                                                                                  
G22  24288006.750 4                     -1056.696          33.000                                                                                                                  
G21  25347840.560 9                     -3698.073          19.000                                                                                                                  
G14  22823558.976 4 119938615.62225      1569.368          34.000    22823557.589 4                      1223.128          32.000                                                  
C13  38485172.431 2                       218.360          32.000    38485168.030 1 154963840.608 4       170.055          35.000  
C34  25604140.265 9                     -2316.233          20.000                                                                  
C25  23853150.070 1 124209609.723 4     -1975.486          35.000                                                                  
C11  24332696.505 4                     -1837.603          24.000    24332686.452 2                     -1424.281          31.000  
C23  24798508.834 1 129132343.31424       968.581          36.000                                                                  
C08  38027223.817 2                      -125.887          31.000    38027209.345 1 153119819.940 3       -97.102          38.000  
R21  22611579.537 8                       107.482          28.000    22611570.823 2                        84.415          33.000  
R10  20922081.603 4                       291.291          29.000                                                                  
R09  21894854.956 4                     -3446.097          32.000    21894854.194 2  90935667.372 3     -2681.253          39.000  
G30  22933493.948 2 120516325.032 5     -1734.541          35.000    22933492.588 2  93908824.369 5     -1351.759          33.000                                                  
G03  23755342.067 2                       925.818          34.000    23755344.113 2  97274176.177 5       721.860          35.000                                                  
G17  23915332.830 2                        -3.447          32.000    23915331.683 4                        -2.599          27.000                                                  
S28  38900925.813 1 204425713.506 4      -556.163          35.000  
C07  37618321.809 4                       -34.486          31.000    37618306.284 1 151473321.711 3       -27.032          38.000  
E26  25633610.001 2 134705512.584 5       559.646          33.000    25633613.088 1 103215946.173 4       428.325          35.000  
S37  38088232.224 2                      -544.094          33.000  
E21  25550949.515 2 134271152.047 5       811.168          32.000    25550952.403 1 102883098.480 3       622.542          38.000  
E27  25633979.126 1 134707485.403 4     -1708.682          34.000    25633981.228 1 103217414.110 3     -1309.133          40.000  
E14  20477263.506 9                     -1532.370          23.000    20477265.111 8                     -1168.400          30.000  
J07  38088239.387 4                      -543.983          29.000    38088236.502 1 155964960.602 4      -423.475          36.000  
J03  41288663.252 2                      -837.975          30.000    41288663.784 2 169070179.944 4      -652.182          35.000  
J02  38124949.013 2 200347937.266 5       290.791          34.000    38124949.564 1 156115309.089 3       226.423          37.000  
E13  25220122.668 4                     -1838.772          31.000    25220125.257 1 101550991.737 3     -1409.669          37.000  
E15                                                                  28530157.765 9                     -2344.931          23.000  
R20                                                                  22424009.676 9                     -2268.731          31.000  
> 2021 06 10 03 36 22.0050000  0 29                     
G01  22613610.720 9                     -3130.393          24.000    22613611.947 8                     -2441.340          27.000                                                  
G07  23641161.176 8                     -3554.180          30.000    23641162.041 2                     -2769.517          29.000                                                  
G22  24288208.617 8                     -1053.480          29.000                                                                                                                  
G21  25348547.059 9                     -3707.622          17.000                                                                                                                  
G14  22823260.040 4                      1568.959          32.000    22823258.770 2  93457437.632 4      1222.847          33.000                                                  
C13  38485130.418 2 200402179.222 5       217.417          32.000    38485126.238 1 154963671.882 5       169.141          35.000  
C34  25604586.098 9                     -2320.497          19.000                                                                  
C25  23853529.521 1 124211585.810 4     -1976.841          34.000                                                                  
C11  24333051.265 9                     -1827.062          21.000    24333040.694 8                     -1421.002          29.000  
C23  24798322.838 1 129131374.41014       967.514          35.000                                                                  
C08  38027248.004 2                      -127.333          30.000    38027233.526 1 153119917.207 3       -97.924          38.000  
R21  22611560.328 8                       104.430          29.000    22611550.929 4                        82.579          32.000  
R10  20922026.971 4                       290.126          27.000                                                                  
R09  21895500.528 4 116920747.780 5     -3448.602          33.000    21895499.605 2  90938348.376 4     -2680.618          38.000  
G30  22933824.217 1 120518060.850 4     -1738.076          35.000    22933823.062 2  93910176.934 5     -1354.009          33.000                                                  
G03  23755165.704 2 124834267.927 5       927.646          34.000    23755167.683 1  97273454.103 4       722.488          35.000                                                  
G17  23915333.701 4                        -4.272          32.000    23915332.107 4                        -3.527          29.000                                                  
S28  38901032.054 1 204426270.949 4      -558.753          35.000  
C07  37618326.436 4                       -32.975          32.000    37618312.720 1 151473347.471 4       -25.813          36.000  
E26  25633503.770 2 134704953.819 5       557.437          33.000    25633506.755 1 103215518.027 4       426.531          35.000  
S37  38088335.860 2 200155552.75115      -544.365          33.000  
E21  25550794.749 2                       811.720          31.000    25550797.912 1 102882476.556 3       621.424          39.000  
E27  25634304.254 1 134709193.139 5     -1707.969          34.000    25634306.390 1 103218722.667 3     -1308.673          39.000  
E14  20477555.235 9                     -1525.943          23.000    20477552.322 8                     -1164.874          30.000  
J07  38088344.499 8                      -544.855          30.000    38088339.975 1 155965384.271 4      -422.953          35.000  
J03  41288822.411 4                      -836.239          29.000    41288822.871 1 169070831.575 4      -650.658          35.000  
J02  38124893.501 1 200347645.806 4       291.457          34.000    38124894.061 1 156115081.904 3       226.831          37.000  
E13  25220472.430 2 132534478.941 5     -1837.993          31.000    25220475.017 1 101552400.299 3     -1409.169          37.000  
E15                                                                  28530740.789 9                     -2335.599          22.000  
> 2021 06 10 03 36 23.0050000  0 31                     
G01  22614205.479 9                     -3129.202          27.000    22614211.165 8                     -2438.843          27.000                                                  
G07  23641840.358 9                     -3559.462          22.000    23641839.292 9                     -2767.384          19.000                                                  
G28  24250472.140 9                      1964.991          18.000                                                                                                                  
G22  24288409.206 8                     -1053.609          30.000                                                                                                                  
G21  25349252.604 9                     -3711.309          18.000                                                                                                                  
G14  22822962.410 4                      1568.395          29.000    22822960.231 4                      1221.678          30.000                                                  
C13  38485088.970 2 200401962.375 5       215.979          32.000    38485084.604 2                       167.734          35.000  
C34  25605033.053 9                     -2317.834          19.000                                                                  
C25  23853909.175 1 124213563.175 5     -1976.640          34.000                                                                  
C11  24333400.987 9                     -1835.259          20.000    24333391.986 4                     -1418.553          33.000  
C23  24798137.162 1 129130407.557 4       967.099          35.000                                                                  
C08  38027272.280 2                      -125.619          31.000    38027257.843 1 153120014.966 3       -97.654          38.000  
R21  22611538.264 8                       103.390          30.000    22611531.721 4                        79.813          32.000  
R10  20921972.400 4                       290.151          26.000                                                                  
R09  21896146.139 4 116924195.636 5     -3447.750          33.000    21896145.361 2  90941030.107 4     -2681.664          37.000  
G30  22934154.832 1 120519798.842 5     -1738.248          34.000    22934153.794 2  93911531.255 5     -1354.870          33.000                                                  
G03  23754989.234 2 124833340.593 5       928.332          34.000    23754991.186 2  97272731.549 4       722.618          35.000                                                  
G17  23915334.716 4                        -5.656          31.000    23915333.130 4                        -3.750          29.000                                                  
S28  38901138.691 1 204426830.210 4      -559.796          36.000  
C07  37618333.047 4 195888529.93215       -31.919          32.000    37618319.042 1 151473372.889 4       -24.805          36.000  
E26  25633397.818 2 134704397.139 5       556.251          33.000    25633400.899 1 103215091.495 4       426.118          36.000  
S37  38088439.504 2 200156096.423 5      -543.604          33.000  
E21  25550640.466 2                       811.314          31.000    25550643.627 1 102881854.948 3       621.630          39.000  
E27  25634629.171 1 134710900.697 5     -1706.941          34.000    25634631.249 1 103220031.060 3     -1308.394          38.000  
E14  20477844.090 8                     -1520.950          26.000    20477843.154 4                     -1167.801          31.000  
J07  38088446.726 8                      -545.379          30.000    38088443.434 1 155965807.884 4      -422.858          35.000  
J03  41288981.364 2                      -834.251          29.000    41288981.823 2 169071482.489 4      -650.222          34.000  
J02  38124837.972 1 200347354.036 4       292.379          35.000    38124838.538 1 156114854.570 4       227.071          37.000  
E13  25220822.501 2                     -1838.306          31.000    25220825.005 1 101553808.779 3     -1407.784          38.000  
J01  39098902.503 9                      -411.073          21.000                                                                  
E15                                                                  28531322.046 9                     -2338.341          22.000  
> 2021 06 10 03 36 24.0050000  0 32                     
G01  22614801.057 8                     -3129.043          27.000    22614802.330 8                     -2438.986          28.000                                                  
G07  23642521.098 9                     -3555.962          21.000    23642515.279 9                     -2761.602          17.000                                                  
G28  24250100.566 9                      1971.639          18.000                                                                                                                  
G22  24288610.261 8                     -1052.507          31.000                                                                                                                  
G21  25349958.377 9                     -3706.289          19.000                                                                                                                  
G14  22822664.386 4                      1567.732          28.000    22822661.694 2                      1222.408          31.000                                                  
C13  38485047.651 2                       215.778          32.000    38485043.052 1 154963336.978 5       166.896          34.000  
C34  25605480.552 9                     -2322.680          20.000                                                                  
C25  23854289.064 1 124215541.216 5     -1978.378          34.000                                                                  
C11  24333751.599 9                     -1836.320          28.000    24333743.167 4                     -1417.722          33.000  
C23  24797951.728 1 129129441.881 4       965.330          34.000                                                                  
C08  38027296.458 2                      -126.194          31.000    38027282.249 1 153120112.918 3       -98.026          38.000  
R21  22611519.055 8                       102.715          30.000    22611512.790 4                        73.866          31.000  
R10  20921918.234 4                       287.574          26.000                                                                  
R09  21896791.878 4                     -3448.792          32.000    21896791.093 2  90943712.069 5     -2683.615          34.000  
G30  22934485.882 2 120521538.249 5     -1739.919          35.000    22934484.852 2                     -1356.924          32.000                                                  
G03  23754812.632 2 124832412.598 5       929.022          34.000    23754814.506 2  97272008.415 4       723.453          34.000                                                  
G17  23915335.564 4                        -6.989          29.000    23915334.032 4                        -5.259          29.000                                                  
S28  38901245.512 2 204427390.463 5      -560.438          33.000  
C07  37618339.896 4                       -31.480          32.000    37618325.273 1 151473397.926 3       -24.797          38.000  
E26  25633292.087 2 134703841.794 5       553.701          33.000    25633295.059 1 103214665.988 5       424.239          35.000  
S37  38088542.948 2 200156639.668 5      -542.734          34.000  
E21  25550486.333 4                       811.275          30.000    25550489.141 1 102881233.726 3       621.032          39.000  
E27  25634954.138 1 134712607.966 4     -1706.765          34.000    25634956.130 1 103221339.169 3     -1307.812          39.000  
E14  20478132.450 8                     -1522.324          25.000    20478133.262 4                     -1165.844          32.000  
J07  38088551.361 8                      -543.555          30.000    38088546.827 1 155966231.306 4      -422.885          35.000  
J03  41289140.193 2                      -834.247          29.000    41289140.598 1 169072132.800 4      -649.881          35.000  
J02  38124782.478 1 200347061.902 4       292.089          35.000    38124782.904 1 156114626.932 4       228.114          36.000  
E13  25221172.250 2                     -1838.012          30.000    25221174.819 1 101555217.334 3     -1408.445          38.000  
J01  39098978.462 9                      -411.073          20.000                                                                  
E15                                                                  28531899.194 9                     -2334.836          21.000  
R20                                                                  22425645.128 9                     -2269.602          25.000  
> 2021 06 10 03 36 25.0050000  0 31                     
G01  22615395.394 8                     -3129.899          31.000    22615396.393 8                     -2438.729          33.000                                                  
G07  23643201.220 9                     -3547.136          22.000    23643192.019 9                     -2769.772          17.000                                                  
G28  24249728.736 9                      1952.179          19.000                                                                                                                  
G22  24288809.746 4                     -1051.912          30.000                                                                                                                  
G21  25350663.467 9                     -3701.756          22.000                                                                                                                  
G14  22822366.074 4                      1566.838          28.000    22822363.365 2  93453771.041 5      1221.730          33.000                                                  
C13  38485006.291 2 200401530.376 5       215.478          32.000    38485001.654 2 154963170.170 5       165.345          34.000  
C34  25605922.271 9                     -2311.540          23.000                                                                  
C25  23854669.059 2 124217519.849 5     -1978.871          33.000                                                                  
C11  24334106.563 9                     -1833.339          26.000    24334096.376 4                     -1417.860          33.000  
C23  24797766.443 1 129128477.702 4       964.650          33.000                                                                  
C08  38027320.798 2                      -126.537          31.000    38027306.693 1 153120210.988 3       -97.831          38.000  
R21  22611499.370 8                        99.282          30.000    22611492.599 8                        77.703          31.000  
R10  20921863.581 8                       287.619          25.000                                                                  
R09  21897437.686 4                     -3447.567          33.000    21897436.838 2  90946393.900 3     -2682.323          37.000  
G30  22934817.196 1 120523279.198 5     -1741.981          34.000    22934816.182 2  93914243.191 5     -1357.905          33.000                                                  
G03  23754635.834 2 124831483.402 5       930.804          35.000    23754637.656 1  97271284.401 4       724.850          35.000                                                  
G17  23915336.057 4                        -7.539          28.000    23915335.534 8                        -5.350          25.000                                                  
S28  38901352.548 1 204427951.536 5      -561.553          36.000  
C07  37618345.806 4                       -31.625          32.000    37618331.347 1 151473422.447 4       -24.399          36.000  
E26  25633186.528 2 134703287.752 4       553.650          33.000    25633189.676 1 103214241.461 5       423.020          35.000  
S37  38088646.331 2                      -541.877          33.000  
E21  25550332.022 4                       809.647          30.000    25550334.931 1 102880612.905 3       620.444          39.000  
E27  25635278.718 1 134714314.545 4     -1706.172          34.000    25635281.019 1 103222646.856 3     -1307.797          39.000  
E14  20478422.069 9                     -1523.088          34.000    20478422.721 4                     -1166.987          41.000  
J07  38088655.540 8                      -542.563          29.000    38088649.986 1 155966654.124 4      -423.268          35.000  
J03  41289298.825 2                      -832.595          29.000    41289299.257 2 169072782.467 4      -649.253          34.000  
J02  38124726.879 1 200346768.905 3       293.302          35.000    38124727.084 1 156114398.610 3       228.592          36.000  
E13  25221522.115 2                     -1837.751          31.000    25221524.624 1 101556625.926 3     -1408.841          37.000  
J01  39099056.085 9                      -411.073          17.000                                                                  
E15                                                                  28532479.499 9                     -2342.873          19.000  
> 2021 06 10 03 36 26.0050000  0 32                     
G01  22615991.203 8                     -3129.233          32.000    22615990.913 8                     -2438.415          35.000                                                  
G07  23643879.731 9                     -3574.794          21.000    23643869.662 9                     -2773.694          19.000                                                  
G28  24249360.098 9                      1941.231          19.000                                                                                                                  
G22  24289009.083 4                     -1052.050          30.000                                                                                                                  
G21  25351367.623 9                     -3703.631          24.000                                                                                                                  
G14  22822067.829 2                      1567.904          28.000    22822065.044 2  93452549.595 5      1220.862          33.000                                                  
C13  38484964.996 2 200401314.955 5       215.150          31.000    38484960.143 2 154963003.543 5       166.823          34.000  
C34  25606357.994 8                     -2313.813          31.000                                                                  
C25  23855048.984 1 124219498.822 5     -1978.730          33.000                                                                  
C11  24334456.846 9                     -1834.951          31.000    24334447.987 4  97984742.53335     -1418.459          41.000  
C23  24797581.524 1 129127514.684 4       962.358          34.000                                                                  
C08  38027345.101 2                      -126.510          31.000    38027331.049 1 153120309.003 3       -98.004          38.000  
R21  22611478.474 8                        97.417          30.000    22611474.334 8                        77.597          31.000  
R10  20921810.184 8                       286.952          25.000                                                                  
R09  21898083.420 4                     -3447.759          32.000    21898082.476 2  90949075.761 3     -2682.671          39.000  
G30  22935148.663 2 120525021.271 5     -1742.737          34.000    22935147.684 2  93915600.608 5     -1357.468          32.000                                                  
G03  23754458.850 2 124830553.296 5       930.749          34.000    23754460.526 2  97270559.592 4       725.377          35.000                                                  
G17  23915337.737 8                        -7.809          28.000    23915336.791 8                        -4.869          26.000                                                  
S28  38901459.657 1 204428513.207 4      -562.117          36.000  
C07  37618352.004 2 195888625.124 5       -31.499          32.000    37618337.277 1 151473446.488 4       -23.991          36.000  
E26  25633081.283 1 134702734.805 4       552.927          33.000    25633084.584 1 103213817.767 5       422.896          35.000  
S37  38088749.371 2 200157724.199 5      -542.047          33.000  
E21  25550177.871 4                       808.547          30.000    25550180.807 1 102879992.282 2       620.817          39.000  
E27  25635603.233 1 134716020.475 4     -1705.967          34.000    25635605.723 1 103223953.977 2     -1307.142          39.000  
E14  20478709.616 8 107616345.28515     -1522.924          34.000    20478712.507 2  82459290.72215     -1166.702          41.000  
J07  38088757.557 8                      -542.561          30.000    38088753.036 1 155967076.343 3      -421.974          35.000  
J03  41289457.142 2                      -832.329          29.000    41289457.686 2 169073431.359 4      -648.442          34.000  
J02  38124671.043 1 200346475.141 3       293.945          35.000    38124671.176 1 156114169.724 4       228.964          36.000  
E13  25221872.151 2                     -1838.137          31.000    25221874.362 1 101558034.411 3     -1408.063          37.000  
J01  39099133.295 9                      -411.073          16.000                                                                  
E15                                                                  28533061.057 9                     -2321.692          17.000  
R20                                                                  22426732.500 9                     -2267.814          33.000  
> 2021 06 10 03 36 27.0050000  0 32                     
G01  22616587.618 8                     -3128.783          32.000    22616589.013 8  92611154.96315     -2439.983          32.000                                                  
G07  23644556.093 9                     -3545.910          19.000    23644546.967 9                     -2768.472          18.000                                                  
G28  24248987.468 9                      1951.431          18.000                                                                                                                  
G22  24289209.276 4                     -1049.798          30.000                                                                                                                  
G21  25352068.395 9                     -3693.009          24.000                                                                                                                  
G14  22821769.546 4                      1567.476          29.000    22821766.764 2                      1219.992          33.000                                                  
C13  38484923.530 2                       216.575          32.000    38484918.825 1 154962837.147 5       165.952          34.000  
C34  25606796.999 8                     -2310.842          26.000                                                                  
C25  23855428.982 1 124221478.261 5     -1980.406          34.000                                                                  
C11  24334811.040 8                     -1833.776          31.000    24334800.861 2  97986160.55013     -1418.835          42.000  
C23  24797396.930 1 129126552.616 5       961.547          34.000                                                                  
C08  38027369.396 2                      -127.037          31.000    38027355.446 1 153120407.038 3       -98.494          38.000  
R21  22611461.254 8                        97.116          30.000    22611458.237 8                        75.866          31.000  
R10  20921756.547 8                       286.098          25.000                                                                  
R09  21898729.221 4 116937988.212 5     -3449.364          32.000    21898728.184 2  90951757.610 4     -2681.827          38.000  
G30  22935480.363 1 120526764.288 4     -1743.204          34.000    22935479.405 2  93916958.853 5     -1358.583          33.000                                                  
G03  23754281.802 2 124829622.380 4       931.580          34.000    23754283.422 1  97269834.249 4       725.153          35.000                                                  
G17  23915338.366 4                        -8.322          28.000    23915337.751 8                        -6.617          27.000                                                  
S28  38901566.785 1 204429075.599 4      -561.912          35.000  
C07  37618357.771 2 195888655.727 5       -30.906          32.000    37618343.115 1 151473470.164 4       -24.183          36.000  
E26  25632976.204 1 134702182.707 4       552.099          33.000    25632979.465 1 103213394.692 4       423.077          35.000  
S37  38088852.509 2 200158265.461 5      -541.443          33.000  
E21  25550024.034 4                       808.781          30.000    25550026.832 1 102879371.958 3       620.143          39.000  
E27  25635927.791 1 134717725.934 4     -1705.350          34.000    25635930.303 1 103225260.728 2     -1306.559          39.000  
E14  20479001.151 8                     -1524.957          30.000    20479002.500 1  82460458.243 4     -1168.573          39.000  
J07  38088861.743 8                      -540.750          30.000    38088856.069 1 155967498.095 4      -421.333          35.000  
J03  41289615.443 2                      -831.762          29.000    41289615.979 2 169074079.754 5      -648.809          34.000  
J02  38124615.114 1 200346180.712 4       294.780          36.000    38124615.069 1 156113940.320 3       229.263          36.000  
E13  25222222.216 2                     -1838.041          30.000    25222224.094 1 101559442.947 3     -1408.770          38.000  
J01  39099210.459 9                      -411.073          14.000                                                                  
E15                                                                  28533636.875 9                     -2335.495          17.000  
R20                                                                  22427279.628 8                     -2267.957          34.000  
> 2021 06 10 03 36 28.0050000  0 32                     
G01  22617181.639 8                     -3127.077          28.000    22617184.222 4                     -2438.082          33.000                                                  
G07  23645231.386 9                     -3547.501          20.000    23645224.532 9                     -2767.927          17.000                                                  
G28  24248616.305 9                      1942.455          29.000                                                                                                                  
G22  24289409.324 4                     -1049.583          32.000                                                                                                                  
G21  25352771.972 9                     -3712.815          22.000                                                                                                                  
G14  22821471.718 4                      1566.982          29.000    22821468.691 2                      1220.723          33.000                                                  
C13  38484882.185 2                       215.653          32.000    38484877.428 2 154962670.800 5       166.655          35.000  
C34  25607241.785 8                     -2313.223          31.000                                                                  
C25  23855809.008 1 124223457.941 5     -1979.565          33.000                                                                  
C11  24335166.464 8                     -1835.883          26.000    24335152.623 2  97987579.496 4     -1419.905          37.000  
C23  24797212.533 1 129125592.028 5       959.554          34.000                                                                  
C08  38027393.670 2                      -126.714          30.000    38027379.798 1 153120505.133 2       -98.079          38.000  
R21  22611442.404 8                        95.680          29.000    22611441.144 8                        73.493          31.000  
R10  20921702.010 9                       285.825          25.000                                                                  
R09  21899374.836 4                     -3447.362          31.000    21899373.984 2  90954439.374 3     -2681.343          38.000  
G30  22935812.221 1 120528508.408 4     -1744.977          34.000    22935811.278 2  93918317.849 5     -1359.432          32.000                                                  
G03  23754104.336 2 124828690.692 5       933.196          34.000    23754106.115 1  97269108.281 4       726.403          35.000                                                  
G17  23915340.435 8                        -8.946          33.000    23915339.120 8                        -6.320          28.000                                                  
S28  38901673.886 1 204429638.276 5      -562.330          35.000  
C07  37618363.572 2 195888686.188 5       -30.128          32.000    37618349.059 1 151473493.706 4       -23.302          36.000  
E26  25632871.156 1 134701631.522 5       550.488          33.000    25632874.645 1 103212972.335 4       422.285          35.000  
S37  38088955.498 2 200158806.042 5      -539.550          33.000  
E21  25549870.432 2 134265479.884 5       808.154          31.000    25549872.967 1 102878752.239 3       619.669          39.000  
E27  25636252.319 1 134719430.983 4     -1705.025          34.000    25636254.806 1 103226567.182 2     -1305.780          39.000  
E14  20479291.847 8                     -1523.643          30.000    20479292.515 2                     -1168.281          38.000  
J07  38088964.028 4                      -540.113          30.000    38088958.992 1 155967919.369 3      -421.073          35.000  
J03  41289773.883 2                      -831.330          28.000    41289774.215 2 169074727.902 4      -648.238          34.000  
J02  38124559.084 1 200345885.708 4       296.072          36.000    38124558.914 1 156113710.433 3       230.797          37.000  
E13  25222572.104 2                     -1838.886          30.000    25222573.873 1 101560851.798 3     -1408.573          38.000  
J01  39099287.080 9                      -411.073          16.000                                                                  
E15                                                                  28534210.946 9                     -2354.328          19.000  
R20                                                                  22427823.888 8                     -2268.237          30.000  
> 2021 06 10 03 36 29.0050000  0 32                     
G01  22617774.679 8                     -3129.745          32.000    22617779.063 4  92616031.852 5     -2439.200          35.000                                                  
G07  23645904.910 9                     -3558.907          29.000    23645901.131 9                     -2772.872          27.000                                                  
G28  24248249.146 9                      1945.108          27.000                                                                                                                  
G22  24289609.265 4                     -1048.731          32.000                                                                                                                  
G21  25353481.586 9                     -3756.821          19.000                                                                                                                  
G14  22821172.718 4                      1565.248          28.000    22821170.709 2  93448878.84915      1220.074          33.000                                                  
C13  38484840.840 2                       214.786          32.000    38484836.122 1 154962504.450 4       166.390          35.000  
C34  25607684.738 4                     -2313.055          32.000                                                                  
C25  23856189.251 1 124225437.843 5     -1980.324          33.000                                                                  
C11  24335516.609 4                     -1835.724          32.000    24335504.919 2  97988998.020 3     -1418.729          42.000  
C23  24797028.323 1 129124632.388 5       960.248          34.000                                                                  
C08  38027417.815 2                      -126.791          30.000    38027404.200 1 153120603.034 3       -97.753          38.000  
R21  22611424.179 8                        94.289          30.000    22611423.429 8                        73.467          32.000  
R10  20921648.904 9                       285.419          25.000                                                                  
R09  21900020.597 4                     -3448.239          31.000    21900019.514 2  90957120.910 3     -2681.579          39.000  
G30  22936144.287 1 120530253.311 4     -1745.635          35.000    22936143.298 2  93919677.555 5     -1360.596          33.000                                                  
G03  23753927.019 2 124827758.109 5       932.189          33.000    23753928.603 1  97268381.531 3       727.138          36.000                                                  
G17  23915344.230 8                        -9.170          28.000    23915339.409 8                        -8.587          28.000                                                  
S28  38901781.066 1 204430201.233 4      -563.335          34.000  
C07  37618369.213 2 195888715.918 5       -29.471          32.000    37618354.758 1 151473516.713 4       -22.960          37.000  
E26  25632766.409 2 134701081.083 5       550.470          33.000    25632769.884 1 103212550.555 4       421.733          35.000  
S37  38089058.255 2 200159345.775 5      -539.479          33.000  
E21  25549716.810 2                       808.637          30.000    25549719.243 1 102878132.704 3       619.360          39.000  
E27  25636576.717 1 134721135.188 4     -1703.542          34.000    25636578.960 1 103227873.057 3     -1305.987          39.000  
E14  20479584.335 8 107620917.914 5     -1525.106          34.000    20479582.137 2  82462794.409 4     -1168.875          40.000  
J07  38089067.103 4                      -538.787          30.000    38089061.665 1 155968339.882 3      -419.945          35.000  
J03  41289932.140 4                      -829.880          29.000    41289932.323 1 169075375.402 4      -647.216          35.000  
J02  38124502.763 1 200345589.808 4       295.888          35.000    38124502.548 1 156113479.832 3       230.574          37.000  
E13  25222921.894 2                     -1839.049          31.000    25222923.788 1 101562260.665 3     -1408.810          37.000  
J01  39099364.564 9                      -411.073          16.000                                                                  
E15                                                                  28534791.844 9                     -2359.951          19.000  
R20                                                                  22428371.397 8                     -2267.438          36.000  
> 2021 06 10 03 36 30.0050000  0 31                     
G01  22618370.051 8 118860349.43635     -3129.876          32.000    22618374.630 4  92618470.071 5     -2437.988          34.000                                                  
G07  23646578.711 9                     -3551.977          20.000    23646578.223 9                     -2771.586          15.000                                                  
G28  24247880.537 8                      1945.105          29.000                                                                                                                  
G22  24289808.784 4                     -1047.538          30.000                                                                                                                  
G14  22820874.997 8                      1564.909          28.000    22820872.900 2  93447659.208 5      1220.101          33.000                                                  
C13  38484799.542 2 200400454.898 5       215.009          33.000    38484794.875 1 154962338.544 4       165.467          35.000  
C34  25608128.155 9                     -2317.246          25.000                                                                  
C25  23856569.571 1 124227418.412 5     -1981.621          34.000                                                                  
C11  24335868.901 4                     -1834.365          32.000    24335857.337 1  97990416.612 2     -1418.447          43.000  
C23  24796844.252 1 129123674.236 5       957.212          34.000                                                                  
C08  38027442.167 2                      -126.498          31.000    38027428.569 1 153120701.137 3       -97.933          38.000  
R21  22611406.765 4                        91.951          30.000    22611406.461 8                        72.122          32.000  
R10  20921595.680 9                       283.989          25.000                                                                  
R09  21900666.289 4                     -3447.827          32.000    21900665.228 2  90959802.599 3     -2681.862          38.000  
G30  22936476.587 1 120531999.683 4     -1747.343          34.000    22936475.586 2  93921038.366 4     -1362.001          33.000                                                  
G03  23753749.438 2 124826824.679 4       933.396          34.000    23753750.995 1  97267654.177 4       728.291          36.000                                                  
G17  23915343.445 8                       -11.283          30.000    23915343.782 8                        -8.109          30.000                                                  
S28  38901888.492 1 204430765.060 4      -563.885          34.000  
C07  37618374.831 2 195888745.352 5       -29.616          33.000    37618360.342 1 151473539.465 3       -23.235          36.000  
E26  25632661.817 2 134700531.964 5       548.622          33.000    25632665.425 1 103212129.825 4       420.407          36.000  
S37  38089160.829 2                      -538.758          32.000  
E21  25549563.006 2                       807.873          31.000    25549565.509 1 102877513.639 2       619.243          39.000  
E27  25636901.051 1 134722839.045 4     -1702.872          34.000    25636903.177 1 103229178.583 3     -1305.683          39.000  
E14  20479871.143 4                     -1525.797          33.000    20479872.112 1  82463963.003 3     -1169.262          40.000  
J07  38089169.458 4                      -539.300          29.000    38089164.342 1 155968760.088 3      -419.848          35.000  
J03  41290089.950 4                      -829.915          29.000    41290090.361 2 169076022.392 4      -646.810          34.000  
J02  38124446.400 1 200345293.313 4       296.975          35.000    38124446.103 1 156113248.861 3       230.200          37.000  
E13  25223271.919 4                     -1839.263          31.000    25223273.741 1 101563669.622 3     -1409.030          38.000  
J01  39099441.128 9                      -411.073          16.000                                                                  
E15                                                                  28535376.467 9                     -2372.119          17.000  
R20                                                                  22428916.327 8                     -2267.963          34.000  
> 2021 06 10 03 36 31.0050000  0 31                     
G01  22618963.377 8                     -3128.796          26.000    22618970.121 4                     -2436.990          29.000                                                  
G07  23647252.855 9                     -3555.768          33.000    23647254.654 9                     -2771.861          33.000                                                  
G28  24247509.145 8                      1942.660          28.000                                                                                                                  
G22  24290008.212 2                     -1047.387          31.000                                                                                                                  
G14  22820578.777 8                      1565.177          31.000    22820575.144 2  93446439.915 5      1218.665          33.000                                                  
C13  38484758.349 2 200400240.802 5       213.924          33.000    38484753.802 1 154962172.985 4       164.869          35.000  
C34  25608573.630 9                     -2312.458          22.000                                                                  
C25  23856949.972 1 124229399.481 5     -1981.826          34.000                                                                  
C11  24336219.748 4                     -1835.724          27.000    24336209.681 1  97991835.285 4     -1420.844          34.000  
C23  24796660.362 1 129122716.914 5       957.362          35.000                                                                  
C08  38027466.469 2 198018995.186 5      -127.075          31.000    38027452.980 1 153120799.393 3       -98.523          38.000  
R21  22611389.533 4                        92.487          30.000    22611388.060 8                        70.433          31.000  
R10  20921542.586 9                       282.721          26.000                                                                  
R09  21901312.256 2 116951779.962 5     -3448.666          33.000    21901311.037 2  90962484.575 3     -2682.628          39.000  
R20  22429448.186 9                     -2916.000          14.000    22429459.359 8                     -2268.025          30.000  
G30  22936809.053 1 120533747.154 4     -1747.877          34.000    22936808.051 2  93922399.976 5     -1361.783          33.000                                                  
G03  23753571.759 2 124825890.867 5       933.203          34.000    23753573.301 1  97266926.555 4       727.065          35.000                                                  
G17  23915347.783 8 125675996.15515       -10.564          32.000    23915347.664 8                        -8.715          30.000                                                  
S28  38901996.070 1 204431329.549 4      -565.150          35.000  
C07  37618380.457 2                       -29.545          33.000    37618365.940 1 151473561.898 3       -22.275          36.000  
E26  25632557.581 2 134699983.751 5       547.967          33.000    25632561.025 1 103211709.754 4       419.913          35.000  
S37  38089263.456 2 200160423.951 5      -539.453          33.000  
E21  25549409.485 2 134263055.854 5       806.807          31.000    25549411.708 1 102876894.880 2       618.625          39.000  
E27  25637225.225 1 134724542.800 4     -1704.548          34.000    25637227.520 1 103230484.028 3     -1305.502          39.000  
E14  20480162.760 9                     -1529.570          21.000    20480163.178 2                     -1169.806          30.000  
J07  38089272.119 2                      -538.046          29.000    38089266.876 2 155969180.012 4      -419.991          34.000  
J03  41290247.743 2                      -829.758          28.000    41290248.260 1 169076668.953 4      -646.933          35.000  
J02  38124390.007 1 200344996.523 4       296.819          35.000    38124389.612 1 156113017.581 3       230.326          36.000  
E13  25223621.462 2                     -1839.566          31.000    25223623.671 1 101565078.708 3     -1409.447          38.000  
J01  39099516.832 9                      -411.073          16.000                                                                  
E15                                                                  28535959.875 9                     -2329.651          16.000  
> 2021 06 10 03 36 32.0050000  0 31                     
G01  22619560.425 8                     -3129.060          26.000    22619565.388 9                     -2438.763          31.000                                                  
G07  23647930.211 8                     -3557.176          36.000    23647929.720 8                     -2771.921          32.000                                                  
G28  24247136.017 8                      1940.353          28.000                                                                                                                  
G22  24290207.351 4                     -1048.436          30.000                                                                                                                  
G14  22820281.508 8                      1565.380          30.000    22820277.397 1  93445220.605 4      1218.978          34.000                                                  
C13  38484717.475 2 200400026.960 5       213.929          32.000    38484712.771 1 154962007.569 4       164.840          35.000  
C34  25609027.062 9                     -2306.932          18.000                                                                  
C25  23857330.578 1 124231381.053 4     -1981.776          33.000                                                                  
C11  24336566.607 9                     -1825.851          23.000    24336561.378 4                     -1413.681          23.000  
C23  24796476.665 1 129121760.205 5       955.946          34.000                                                                  
C08  38027491.058 2                      -127.126          31.000    38027477.452 1 153120897.758 3       -98.663          38.000  
R21  22611372.563 4                        90.857          30.000    22611371.045 4                        70.260          31.000  
R10  20921489.582 8                       281.415          26.000                                                                  
R09  21901958.157 4                     -3449.119          33.000    21901956.966 2  90965166.869 3     -2682.196          37.000  
R20  22429996.686 9                     -2947.250          13.000                                                                  
G30  22937141.672 1 120535495.303 4     -1748.057          35.000    22937140.798 2  93923762.173 5     -1362.428          32.000                                                  
G03  23753393.919 2 124824957.034 4       933.433          34.000    23753395.576 1  97266198.885 4       727.650          35.000                                                  
G17  23915351.378 4 125676007.781 5       -11.810          33.000    23915348.622 8                        -9.194          30.000                                                  
S28  38902103.577 1 204431894.283 4      -564.614          35.000  
C07  37618386.053 2                       -28.302          32.000    37618371.491 1 151473584.252 3       -22.630          36.000  
E26  25632453.376 1 134699436.041 5       547.920          33.000    25632456.808 1 103211290.084 5       419.675          35.000  
S37  38089366.109 2 200160962.705 5      -539.154          33.000  
E21  25549255.706 2                       807.803          30.000    25549258.158 1 102876276.274 2       618.441          39.000  
E27  25637549.258 1 134726246.588 5     -1704.704          34.000    25637551.793 1 103231789.524 3     -1305.714          39.000  
E14  20480455.175 9                     -1528.034          22.000    20480452.789 8                     -1170.212          29.000  
J07  38089374.472 2                      -539.119          30.000    38089369.372 1 155969599.832 4      -420.306          35.000  
J03  41290405.744 2                      -829.149          29.000    41290406.075 2 169077315.145 4      -645.647          35.000  
J02  38124333.390 1 200344699.572 3       297.150          35.000    38124333.050 1 156112786.179 3       230.878          37.000  
E13  25223971.260 2                     -1839.469          31.000    25223973.640 1 101566487.674 3     -1409.031          36.000  
J01  39099595.262 9                      -411.073          17.000                                                                  
E15                                                                  28536539.622 9                     -2313.287          18.000  
> 2021 06 10 03 36 33.0050000  0 30                     
G01  22620157.114 8                     -3129.386          27.000    22620162.313 8                     -2437.856          30.000                                                  
G07  23648608.481 9                     -3564.747          23.000    23648607.373 9                     -2770.999          25.000                                                  
G28  24246764.786 9                      1966.240          24.000                                                                                                                  
G22  24290406.926 2                     -1049.433          29.000                                                                                                                  
G14  22819983.276 8                      1564.875          29.000    22819979.539 2  93444001.275 5      1219.578          31.000                                                  
C13  38484676.573 2                       214.257          32.000    38484671.521 2 154961842.172 5       165.600          34.000  
C34  25609474.980 9                     -2305.403          17.000                                                                  
C25  23857711.276 1 124233363.025 4     -1982.243          33.000                                                                  
C11  24336923.914 9                     -1829.088          23.000    24336915.118 4                     -1417.162          35.000  
C23  24796292.877 1 129120803.417 4       956.702          34.000                                                                  
C08  38027515.482 2                      -127.227          31.000    38027501.977 1 153120996.134 3       -98.228          37.000  
R21  22611355.311 4                        91.464          30.000    22611353.923 4                        71.883          31.000  
R10  20921437.807 8                       281.417          25.000                                                                  
R09  21902604.138 2 116958678.111 5     -3450.096          33.000    21902602.918 2  90967849.775 3     -2683.642          39.000  
G30  22937474.344 1 120537243.684 4     -1748.462          35.000    22937473.574 2  93925124.538 4     -1362.417          34.000                                                  
G03  23753216.517 2 124824024.002 4       931.806          34.000    23753217.967 1  97265471.820 4       725.945          35.000                                                  
G17  23915352.995 4 125676018.814 5       -10.478          33.000    23915350.910 8                        -6.957          31.000                                                  
G19  25160885.003 9                      1028.059          25.000                                                                                                                  
S28  38902211.119 1 204432458.551 4      -562.973          35.000  
C07  37618391.727 2 195888832.092 5       -29.290          32.000    37618376.996 1 151473606.488 3       -21.835          36.000  
E26  25632348.973 2 134698888.333 5       547.633          33.000    25632352.759 1 103210870.341 4       420.003          35.000  
S37  38089468.634 2 200161501.458 5      -538.842          33.000  
E21  25549101.514 4                       807.855          30.000    25549104.309 1 102875657.558 2       619.387          38.000  
E27  25637873.509 1 134727950.795 4     -1704.367          34.000    25637876.210 1 103233095.380 3     -1306.553          39.000  
E14  20480745.233 8                     -1525.584          24.000    20480743.670 8                     -1169.067          33.000  
J07  38089476.968 2                      -538.362          30.000    38089471.857 1 155970019.660 4      -420.031          36.000  
J03  41290563.514 2                      -828.787          29.000    41290563.856 2 169077961.261 4      -645.822          34.000  
J02  38124276.880 1 200344402.865 4       296.120          35.000    38124276.637 1 156112554.942 3       231.118          37.000  
E13  25224320.876 2                     -1838.619          31.000    25224323.627 1 101567896.782 3     -1409.218          38.000  
E15                                                                  28537121.876 9                     -2338.438          20.000  
> 2021 06 10 03 36 34.0050000  0 30                     
G01  22620754.986 8                     -3130.194          28.000    22620756.978 8                     -2439.113          29.000                                                  
G07  23649285.432 9                     -3558.777          35.000    23649286.641 9                     -2772.489          30.000                                                  
G28  24246396.082 9                      1952.485          22.000                                                                                                                  
G22  24290606.777 4                     -1051.544          30.000                                                                                                                  
G14  22819683.694 8                      1565.797          30.000    22819681.768 2  93442781.949 5      1219.569          35.000                                                  
C13  38484635.339 2                       212.953          32.000    38484630.429 2 154961676.761 5       165.394          34.000  
C34  25609919.456 9                     -2311.031          16.000                                                                  
C25  23858091.958 1 124235345.387 4     -1982.744          33.000                                                                  
C11  24337273.225 9                     -1834.113          20.000    24337268.465 8                     -1412.233          26.000  
C23  24796109.130 1 129119846.518 4       956.196          35.000                                                                  
C08  38027539.951 2                      -126.901          31.000    38027526.481 1 153121094.754 3       -98.744          38.000  
R21  22611338.232 4                        92.197          30.000    22611336.853 4                        70.992          32.000  
R10  20921384.808 9                       283.073          25.000                                                                  
R09  21903250.320 4                     -3451.551          32.000    21903249.112 2  90970533.599 4     -2684.986          38.000  
G30  22937807.108 1 120538992.078 4     -1748.545          35.000    22937806.317 2  93926486.955 5     -1362.888          33.000                                                  
G03  23753039.291 2 124823092.386 5       930.988          34.000    23753040.733 1  97264745.944 4       724.397          35.000                                                  
G17  23915356.770 4                       -10.223          30.000    23915350.958 8                        -8.368          29.000                                                  
G19  25160689.477 9                      1038.682          24.000                                                                                                                  
S28  38902318.359 1 204433022.379 4      -563.730          35.000  
C07  37618397.410 2 195888861.342 5       -29.869          32.000    37618382.602 1 151473629.150 3       -23.022          36.000  
E26  25632244.703 1 134698340.270 5       547.639          34.000    25632248.587 1 103210450.486 5       419.933          35.000  
S37  38089571.441 2 200162040.761 5      -539.422          33.000  
E21  25548947.830 4                       806.488          30.000    25548950.715 1 102875039.047 2       618.165          40.000  
E27  25638197.999 1 134729656.109 4     -1705.395          34.000    25638200.678 1 103234402.092 3     -1307.216          39.000  
E14  20481036.143 9                     -1528.926          24.000    20481033.979 8                     -1172.281          32.000  
J07  38089579.517 2                      -539.673          30.000    38089574.515 2 155970439.893 4      -420.628          35.000  
J03  41290721.303 2                      -829.592          29.000    41290721.668 2                      -646.860          34.000  
J02  38124220.604 1 200344106.788 3       295.631          36.000    38124220.293 1 156112324.266 3       230.049          36.000  
E13  25224670.943 2                     -1839.387          30.000    25224673.701 1 101569306.012 3     -1408.999          38.000  
E15                                                                  28537701.132 9                     -2325.742          19.000  
> 2021 06 10 03 36 35.0050000  0 32                     
G01  22621351.175 9                     -3131.990          25.000    22621349.829 9                     -2443.842          22.000                                                  
G07  23649964.198 8                     -3559.576          27.000    23649961.073 9                     -2774.446          28.000                                                  
G28  24246029.245 9                      1946.565          18.000                                                                                                                  
G22  24290806.861 4                     -1053.474          29.000                                                                                                                  
G14  22819384.701 8                      1564.628          29.000    22819383.992 2                      1218.162          32.000                                                  
C13  38484594.075 2 200399384.757 5       214.045          32.000    38484589.221 2 154961510.975 5       165.810          34.000  
C34  25610365.075 9                     -2307.471          17.000                                                                  
C25  23858472.661 1 124237327.960 5     -1984.005          33.000                                                                  
C11  24337626.097 9                     -1839.348          22.000    24337619.946 4                     -1418.924          31.000  
C23  24795925.398 2 129118889.049 5       957.378          34.000                                                                  
C08  38027564.359 2 198019504.670 5      -127.778          31.000    38027550.947 1 153121193.338 3       -98.922          38.000  
R21  22611320.889 4                        93.308          30.000    22611319.569 4                        70.342          32.000  
R10  20921332.252 9                       279.119          25.000                                                                  
R09  21903896.614 4                     -3453.692          32.000    21903895.402 2  90973218.036 4     -2684.745          39.000  
R20  22431675.374 9                     -3009.750           7.000                                                                  
G30  22938139.736 1 120540739.929 4     -1748.219          35.000    22938138.882 2  93927848.894 5     -1362.007          32.000                                                  
G03  23752862.349 2 124822162.338 5       929.011          32.000    23752863.830 2  97264021.255 5       723.295          35.000                                                  
G17  23915358.342 4                        -8.841          31.000    23915351.881 8                        -6.408          29.000                                                  
G19  25160494.693 9                      1030.015          25.000                                                                                                                  
S28  38902425.464 1 204433584.953 5      -562.441          35.000  
C07  37618403.038 2 195888891.008 5       -31.332          32.000    37618388.335 1 151473652.116 3       -23.463          37.000  
E26  25632140.352 1 134697791.394 4       548.943          34.000    25632143.905 1 103210029.866 5       420.983          34.000  
S37  38089674.254 2 200162580.400 5      -540.146          33.000  
E21  25548794.287 2 134259826.487 5       807.426          31.000    25548797.158 1 102874420.455 3       618.150          38.000  
E27  25638522.967 1 134731362.445 4     -1707.643          34.000    25638525.573 1 103235709.551 3     -1308.719          40.000  
E14  20481326.826 9                     -1524.908          22.000    20481326.314 4                     -1172.539          32.000  
J07  38089682.112 4                      -540.564          30.000    38089677.213 1 155970860.393 3      -421.700          38.000  
J03  41290879.074 2                      -830.914          28.000    41290879.600 2 169079254.323 5      -647.408          32.000  
J02  38124164.432 1 200343811.314 3       294.141          36.000    38124164.073 1 156112094.050 3       229.803          39.000  
E13  25225021.119 2                     -1841.109          31.000    25225023.643 1 101570715.542 3     -1410.720          37.000  
J01  39099830.204 9                      -404.651          19.000                                                                  
E15                                                                  28538276.219 9                     -2336.775          21.000  
> 2021 06 10 03 36 36.0050000  0 32                     
G01  22621945.255 9                     -3132.355          23.000    22621947.508 9                     -2432.536          29.000                                                  
G07  23650642.275 9                     -3550.503          25.000    23650638.910 9                     -2770.688          27.000                                                  
G28  24245663.631 9                      1953.376          18.000                                                                                                                  
G22  24291007.862 4                     -1058.324          30.000                                                                                                                  
G14  22819083.926 8                      1561.885          28.000    22819086.242 8                      1219.142          27.000                                                  
C13  38484552.575 2                       216.627          28.000    38484548.021 1 154961344.711 5       167.646          37.000  
C34  25610810.747 9                     -2315.810          18.000                                                                  
C25  23858853.345 1 124239310.482 5     -1982.504          33.000                                                                  
C11  24337978.669 9                     -1832.284          19.000    24337970.651 8                     -1419.948          27.000  
C23  24795741.092 1 129117930.361 5       958.746          34.000                                                                  
C08  38027588.895 2                      -128.065          30.000    38027575.497 1 153121292.086 3       -98.983          38.000  
R21  22611303.242 4                        95.856          29.000    22611301.970 4                        75.375          32.000  
R10  20921280.995 8                       279.241          25.000                                                                  
R09  21904543.437 4                     -3453.623          31.000    21904542.075 2  90975903.679 3     -2685.863          39.000  
G30  22938472.094 1 120542486.488 4     -1744.975          35.000    22938471.235 2  93929209.868 5     -1360.415          33.000                                                  
G03  23752685.838 2 124821235.547 5       925.016          34.000    23752687.484 1  97263299.096 4       720.077          37.000                                                  
G17  23915359.505 4                        -6.460          31.000    23915353.472 8                        -4.592          29.000                                                  
G19  25160298.391 9                      1033.679          25.000                                                                                                                  
S28  38902532.183 1 204434145.524 4      -560.167          35.000  
C24  27275105.503 9                     -3746.992          14.000                                                                  
C07  37618409.038 2 195888921.883 5       -31.063          32.000    37618394.287 1 151473676.045 3       -24.788          37.000  
E26  25632035.678 1 134697240.821 4       551.389          34.000    25632039.057 1 103209608.003 4       422.501          37.000  
S37  38089777.225 2 200163120.935 5      -540.395          33.000  
E21  25548640.771 4                       807.258          31.000    25548643.451 1 102873801.780 3       618.949          37.000  
E27  25638848.098 1 134733070.851 4     -1709.510          34.000    25638850.481 1 103237018.489 3     -1309.959          38.000  
E14  20481619.768 9                     -1527.511          21.000    20481618.747 4                     -1175.405          31.000  
J07  38089785.126 4                      -541.490          30.000    38089780.187 1 155971281.641 3      -421.926          39.000  
J03  41291037.137 2                      -832.005          27.000    41291037.907 2 169079902.093 4      -648.354          35.000  
J02  38124108.652 1 200343517.337 4       293.848          36.000    38124108.187 1 156111864.950 3       229.013          36.000  
E13  25225371.404 4                     -1840.118          29.000    25225373.974 1 101572125.477 4     -1409.721          36.000  
J01  39099906.628 9                      -404.651          19.000                                                                  
E15                                                                  28538846.926 9                     -2333.874          20.000  
> 2021 06 10 03 36 37.0050000  0 31                     
G01  22622542.004 9                     -3148.587          21.000    22622545.724 9                     -2448.153          26.000                                                  
G07  23651315.059 9                     -3551.120          25.000    23651313.150 9                     -2773.034          26.000                                                  
G28  24245294.804 9                      1964.304          17.000                                                                                                                  
G22  24291209.841 4                     -1063.847          31.000                                                                                                                  
G14  22818784.681 9                      1567.514          22.000    22818788.157 9                      1224.497          26.000                                                  
C13  38484511.154 2 200398953.690 5       217.222          33.000    38484506.582 1                       165.410          32.000  
C34  25611257.191 9                     -2318.278          20.000                                                                  
C25  23859234.074 2 124241293.152 5     -1982.903          33.000                                                                  
C11  24338333.096 9                     -1833.462          17.000    24338322.863 8                     -1418.182          27.000  
C23  24795556.732 1 129116969.550 4       962.617          35.000                                                                  
C08  38027613.427 2                      -127.592          31.000    38027600.089 1 153121390.955 3       -99.678          36.000  
R21  22611284.661 4                       100.476          29.000    22611283.602 4                        78.299          31.000  
R10  20921228.027 9                       278.793          26.000                                                                  
R09  21905190.516 4                     -3458.543          32.000    21905189.167 2  90978590.984 3     -2688.317          39.000  
G30  22938804.081 1 120544230.991 4     -1743.403          36.000    22938803.238 2  93930569.232 4     -1358.591          35.000                                                  
G03  23752510.238 2 124820313.072 5       920.218          35.000    23752511.912 1  97262580.270 4       716.746          38.000                                                  
G17  23915360.366 4                        -2.597          30.000    23915354.146 4                        -1.431          29.000                                                  
G19  25160100.235 9                      1038.569          24.000                                                                                                                  
S28  38902638.404 1 204434703.494 4      -555.880          33.000  
C07  37618415.367 2 195888954.526 5       -33.644          32.000    37618400.426 1 151473701.224 4       -26.345          35.000  
E26  25631930.441 2 134696687.659 5       554.218          33.000    25631934.032 1 103209184.106 4       425.324          37.000  
S37  38089880.561 2 200163663.120 4      -543.034          33.000  
E21  25548487.024 2                       808.017          30.000    25548489.856 1 102873182.951 3       618.969          37.000  
E27  25639173.916 1 134734782.032 4     -1712.695          35.000    25639176.011 1 103238329.665 3     -1312.862          40.000  
E14  20481911.633 9                     -1537.365          21.000    20481909.093 8                     -1176.817          26.000  
J07  38089888.272 2                      -543.480          29.000    38089883.430 1 155971704.063 4      -424.207          37.000  
J03  41291195.779 2                      -834.596          28.000    41291196.345 2 169080551.416 4      -650.582          32.000  
J02  38124053.193 1 200343225.572 3       289.750          35.000    38124052.677 1 156111637.560 3       225.784          37.000  
E13  25225723.282 4                     -1841.535          29.000    25225724.162 1 101573536.014 4     -1410.573          36.000  
J01  39099981.150 9                      -404.651          21.000                                                                  
E15                                                                  28539422.438 9                     -2334.490          20.000  
> 2021 06 10 03 36 38.0050000  0 32                     
G01  22623138.894 9                     -3138.967          23.000    22623147.520 9                     -2448.417          25.000                                                  
G07  23651990.589 9                     -3559.607          23.000    23651986.243 9                     -2772.711          25.000                                                  
G28  24244923.286 9                      1956.085          16.000                                                                                                                  
G22  24291413.166 4                     -1073.186          31.000                                                                                                                  
G14  22818487.624 9                      1565.819          23.000    22818488.061 9                      1223.743          25.000                                                  
C13  38484469.341 2                       217.364          32.000    38484465.256 4 154960993.63135       167.934          33.000  
C34  25611703.764 9                     -2329.985          19.000                                                                  
C25  23859614.882 2 124243275.947 5     -1983.183          33.000                                                                  
C11  24338686.206 9                     -1837.378          30.000    24338677.100 4  98001767.15234     -1421.129          39.000  
C23  24795371.571 2                       965.975          33.000                                                                  
C08  38027638.080 2                      -129.843          31.000    38027624.779 1 153121490.127 3       -99.362          38.000  
R21  22611265.200 4                       106.564          29.000    22611264.311 4                        82.606          31.000  
R10  20921176.127 9                       279.189          26.000                                                                  
R09  21905837.998 4                     -3461.084          31.000    21905836.801 2  90981280.756 4     -2691.712          36.000  
G30  22939135.512 1 120545972.333 4     -1739.856          36.000    22939134.655 2  93931926.037 4     -1355.593          37.000                                                  
G03  23752336.002 1 124819397.660 4       911.596          35.000    23752337.734 1  97261866.928 3       710.066          37.000                                                  
G19  25159902.738 9                      1048.604          25.000                                                                                                                  
S28  38902743.817 2 204435257.440 5      -551.454          34.000  
C07  37618422.154 2 195888989.777 5       -37.030          33.000    37618407.112 1 151473728.458 4       -28.597          34.000  
E26  25631824.413 2 134696130.411 5       559.148          34.000    25631827.886 1 103208757.140 4       429.606          35.000  
S37  38089984.396 2 200164208.122 5      -546.862          32.000  
E21  25548333.549 2                       809.116          31.000    25548336.067 1 102872563.494 3       620.367          38.000  
E27  25639500.396 1 134736497.862 4     -1718.266          35.000    25639502.384 1 103239644.373 3     -1316.154          39.000  
E14  20482205.828 9                     -1539.552          19.000    20482201.411 4                     -1181.372          29.000  
J07  38089991.855 2                      -546.461          29.000    38089987.265 1 155972128.723 3      -425.926          39.000  
J03  41291354.926 2                      -838.290          28.000    41291355.367 2 169081202.959 4      -652.463          36.000  
J02  38123998.353 1 200342937.446 4       286.381          35.000    38123997.804 1 156111413.058 3       223.430          38.000  
E13  25226072.687 8                     -1842.399          30.000    25226074.539 1 101574947.235 4     -1411.275          37.000  
J01  39100059.868 9                      -424.793          19.000                                                                  
E15                                                                  28540000.384 9                     -2338.186          19.000  
G17                                                                  23915353.528 9                         4.784          20.000                                                  
R20                                                                  22433273.030 9                     -2268.079          36.000  
> 2021 06 10 03 36 39.0050000  0 33                     
G01  22623737.843 9                     -3151.134          22.000    22623743.841 8                     -2450.309          25.000                                                  
G07  23652670.362 9                     -3556.046          22.000    23652663.271 9                     -2768.759          23.000                                                  
G28  24244552.668 9                      1955.542          17.000                                                                                                                  
G22  24291617.933 2                     -1079.308          30.000                                                                                                                  
G14  22818188.916 9                      1569.213          23.000    22818188.997 9                      1220.225          25.000                                                  
C13  38484427.427 2 200398517.352 4       220.105          36.000    38484423.464 4 154960824.361 5       169.502          34.000  
C34  25612152.380 9                     -2339.308          17.000                                                                  
C25  23859995.674 1 124245258.463 5     -1983.491          34.000                                                                  
C11  24339038.254 9                     -1841.254          23.000    24339029.021 4                     -1421.021          31.000  
C23  24795185.432 2 129115035.961 5       971.108          33.000                                                                  
C08  38027662.816 2                      -129.286          30.000    38027649.438 1 153121589.371 2       -99.312          38.000  
R21  22611244.546 4                       111.973          30.000    22611243.655 4                        86.393          32.000  
R10  20921124.343 8                       280.516          26.000                                                                  
R09  21906486.429 4                     -3463.031          33.000    21906484.910 2  90983973.570 4     -2693.623          38.000  
G30  22939466.139 1 120547709.511 4     -1735.712          36.000    22939465.409 1  93933279.785 4     -1353.296          35.000                                                  
G03  23752163.137 1 124818489.566 4       905.545          33.000    23752164.991 1  97261159.341 3       705.350          37.000                                                  
G17  23915357.892 9                         5.344          19.000    23915352.062 9                         4.532          18.000                                                  
G19  25159701.481 9                      1054.794          25.000                                                                                                                  
S28  38902848.439 1 204435806.837 4      -547.720          37.000  
C24  27277260.943 9                     -3769.172          28.000                                                                  
C07  37618429.268 2 195889027.387 5       -38.552          32.000    37618414.285 1 151473757.511 4       -29.159          35.000  
E26  25631717.507 2 134695568.381 5       564.144          34.000    25631720.667 1 103208326.490 4       432.766          35.000  
S37  38090088.790 2 200164755.973 5      -549.376          33.000  
E21  25548179.489 2 134256593.104 5       810.679          31.000    25548181.759 1 102871942.913 3       621.027          38.000  
E27  25639827.679 1 134738218.406 3     -1722.651          34.000    25639829.834 1 103240962.764 3     -1319.870          39.000  
E14  20482500.813 9                     -1544.062          18.000    20482496.213 4                     -1181.726          32.000  
J07  38090096.304 2                      -549.954          30.000    38090091.582 1 155972555.637 2      -427.113          39.000  
J03  41291514.622 2                      -840.089          28.000    41291514.999 1 169081856.734 3      -654.267          35.000  
J02  38123944.344 1 200342653.082 3       283.085          35.000    38123943.716 1 156111191.512 2       220.267          39.000  
E13  25226424.764 8                     -1842.633          30.000    25226424.919 1 101576358.733 4     -1412.016          35.000  
J01  39100139.218 9                      -424.793          19.000                                                                  
E15                                                                  28540581.107 9                     -2344.201          17.000  
R20                                                                  22433821.617 8  93305119.57135     -2268.347          33.000  
> 2021 06 10 03 36 40.0050000  0 32                     
G01  22624336.040 9                     -3151.853          19.000    22624340.876 9                     -2450.489          24.000                                                  
G07  23653351.832 9                     -3553.888          20.000    23653342.883 9                     -2770.347          22.000                                                  
G28  24244182.490 9                      1936.898          15.000                                                                                                                  
G22  24291823.796 4                     -1082.376          31.000                                                                                                                  
G14  22817891.426 9                      1576.496          20.000    22817891.473 9                      1224.225          24.000                                                  
C13  38484385.309 1 200398297.539 4       219.511          35.000    38484379.554 4 154960654.335 4       170.189          35.000  
C34  25612598.323 9                     -2320.746          15.000                                                                  
C25  23860376.398 1 124247241.146 4     -1982.844          34.000                                                                  
C11  24339391.248 9                     -1837.110          20.000    24339380.974 9                     -1420.527          22.000  
C23  24794998.640 1 129114064.250 4       971.543          33.000                                                                  
C08  38027687.590 2                      -128.204          30.000    38027674.209 1 153121688.851 3       -99.286          37.000  
R21  22611223.303 4                       113.904          29.000    22611222.410 4                        88.791          32.000  
R10  20921073.216 8                       279.767          26.000                                                                  
R09  21907135.278 2 116982873.185 4     -3465.382          34.000    21907133.741 2  90986668.134 2     -2694.939          39.000  
G30  22939796.357 1 120549444.634 3     -1735.471          36.000    22939795.634 1  93934631.776 3     -1352.368          35.000                                                  
G03  23751991.204 2 124817586.489 5       901.399          32.000    23751993.139 1  97260455.634 3       702.618          37.000                                                  
G17  23915356.915 9                         5.344          15.000    23915350.928 9                        18.995          17.000                                                  
G19  25159500.515 9                      1057.760          25.000                                                                                                                  
S28  38902952.502 1 204436353.274 3      -545.865          36.000  
C07  37618436.857 1 195889066.713 4       -39.832          32.000    37618421.785 1 151473787.928 3       -31.059          35.000  
E26  25631609.830 2 134695003.624 5       564.830          33.000    25631613.480 1 103207893.771 3       432.908          36.000  
S37  38090193.506 2 200165305.720 5      -549.609          33.000  
E21  25548025.287 2 134255782.637 5       810.185          32.000    25548027.359 1 102871321.898 2       620.873          38.000  
E27  25640155.969 1 134739942.213 4     -1724.867          34.000    25640157.954 1 103242283.612 3     -1321.375          39.000  
J07  38090200.592 4                      -549.713          30.000    38090196.362 1 155972984.033 2      -428.500          39.000  
J03  41291674.636 2                      -841.378          28.000    41291674.967 1 169082512.038 4      -655.505          35.000  
J02  38123890.727 1 200342371.335 4       280.746          35.000    38123890.094 1 156110971.961 2       218.899          39.000  
E13  25226775.153 8                     -1843.390          30.000    25226775.571 1 101577770.560 4     -1412.025          34.000  
J01  39100219.083 9                      -424.793          18.000                                                                  
E15                                                                  28541162.668 9                     -2341.002          14.000  
E14                                                                  20482790.914 4                     -1185.290          32.000  
R20                                                                  22434364.293 8                     -2268.457          31.000  
> 2021 06 10 03 36 41.0050000  0 31                     
G01  22624936.090 9                     -3157.810          17.000    22624938.587 9                     -2450.980          22.000                                                  
G07  23654032.110 9                     -3556.110          20.000    23654022.319 9                     -2775.815          21.000                                                  
G28  24243812.752 9                      1948.206          13.000                                                                                                                  
G22  24292029.787 2                     -1083.512          31.000                                                                                                                  
G14  22817594.503 9                      1572.444          19.000    22817591.975 9                      1232.170          24.000                                                  
C13  38484343.188 1 200398077.554 4       219.975          34.000    38484337.962 2 154960484.256 4       169.924          35.000  
C34  25613042.594 9                     -2311.185          13.000                                                                  
C25  23860757.271 1 124249224.183 4     -1983.716          34.000                                                                  
C11  24339745.896 9                     -1830.499          18.000    24339735.206 9                     -1411.245          20.000  
C23  24794812.028 1 129113092.355 5       971.590          33.000                                                                  
C08  38027712.136 2                      -128.833          30.000    38027698.967 1 153121788.395 3       -99.734          37.000  
R21  22611201.818 4                       113.917          28.000    22611201.178 2                        88.023          32.000  
R10  20921020.439 8                       279.534          27.000                                                                  
R09  21907784.214 2 116986338.545 4     -3465.810          35.000    21907782.638 2  90989363.419 2     -2695.633          39.000  
G30  22940126.519 1 120551179.675 3     -1735.417          36.000    22940125.899 1  93935983.760 4     -1352.244          34.000                                                  
G03  23751819.676 2                       902.296          31.000    23751821.508 1  97259752.771 3       702.425          36.000                                                  
G17  23915355.984 9                         5.344          10.000    23915353.983 9                       -28.784          14.000                                                  
G19  25159296.906 9                      1057.825          24.000                                                                                                                  
S28  38903056.343 1 204436899.178 3      -545.936          36.000  
C07  37618444.295 2 195889106.217 5       -39.535          32.000    37618429.405 1 151473818.518 4       -31.159          35.000  
E26  25631502.167 2 134694438.530 4       565.152          33.000    25631506.233 1 103207460.787 3       432.603          35.000  
S37  38090298.183 2 200165855.706 5      -549.711          33.000  
E21  25547871.074 2 134254972.151 5       810.192          31.000    25547872.989 1 102870700.886 2       620.865          38.000  
E27  25640483.702 1 134741666.761 4     -1724.929          34.000    25640486.249 1 103243605.022 2     -1321.745          39.000  
E14  20483087.672 9                     -1545.437          21.000    20483086.351 2  82476890.02715     -1186.288          32.000  
J07  38090305.111 4                      -550.118          30.000    38090301.085 1 155973412.559 2      -428.381          38.000  
J03  41291834.719 2                      -840.332          27.000    41291834.931 1 169083167.406 4      -655.643          34.000  
J02  38123837.269 1 200342089.938 4       280.893          35.000    38123836.557 1 156110752.704 2       218.834          39.000  
E13  25227125.853 8                     -1843.518          30.000    25227126.155 1 101579182.536 4     -1412.269          34.000  
J01  39100299.268 9                      -424.793          17.000                                                                  
R20                                                                  22434909.645 8                     -2269.788          30.000  
> 2021 06 10 03 36 42.0050000  0 30                     
G01  22625537.108 9                     -3153.298          15.000    22625535.705 9                     -2454.506          21.000                                                  
G07  23654708.566 9                     -3554.945          19.000    23654700.888 9                     -2770.193          22.000                                                  
G22  24292236.026 2                     -1083.331          31.000                                                                                                                  
G14  22817295.312 9                      1563.466          18.000    22817294.293 9                      1219.371          24.000                                                  
C13  38484301.074 1 200397857.672 4       219.745          34.000    38484296.066 2 154960314.226 4       169.552          35.000  
C34  25613488.821 9                     -2330.314          13.000                                                                  
C25  23861138.223 1 124251207.608 4     -1983.615          34.000                                                                  
C11  24340097.781 9                     -1813.438          16.000    24340090.627 9                     -1415.802          17.000  
C23  24794625.432 1 129112120.791 5       971.767          33.000                                                                  
C08  38027736.849 2                      -127.993          30.000    38027723.713 1 153121888.026 3       -99.596          37.000  
R21  22611180.452 4                       113.426          28.000    22611180.000 2                        88.261          32.000  
R10  20920968.105 8                       278.398          26.000                                                                  
R09  21908433.215 2 116989804.446 4     -3466.260          34.000    21908431.596 1  90992059.100 2     -2695.429          39.000  
G30  22940456.851 1 120552915.198 3     -1736.056          36.000    22940456.151 2  93937336.126 4     -1352.249          34.000                                                  
G03  23751648.036 2                       901.389          31.000    23751649.885 1  97259050.186 3       702.166          36.000                                                  
G19  25159093.922 9                      1058.939          23.000                                                                                                                  
S28  38903160.263 1 204437445.072 4      -546.035          36.000  
C07  37618451.821 2 195889145.749 5       -39.860          32.000    37618436.997 1 151473849.017 3       -30.478          35.000  
E26  25631394.776 2 134693873.689 4       564.268          32.000    25631398.834 1 103207027.985 3       432.304          35.000  
S37  38090403.062 2 200166405.587 4      -549.741          33.000  
E21  25547716.798 2 134254161.861 4       810.570          31.000    25547718.894 1 102870080.025 2       620.444          38.000  
E27  25640811.840 1 134743391.596 4     -1725.517          34.000    25640814.552 1 103244926.626 2     -1321.694          39.000  
E14  20483382.708 9                     -1547.536          22.000    20483381.314 2                     -1186.766          32.000  
J07  38090409.654 4                      -550.330          30.000    38090405.772 1 155973841.048 2      -428.286          38.000  
J03  41291994.897 2                      -840.386          27.000    41291995.018 1 169083822.611 4      -655.089          34.000  
J02  38123783.739 1 200341808.515 4       281.982          35.000    38123783.006 1 156110533.424 2       219.592          39.000  
E13  25227477.970 4                     -1842.991          29.000    25227476.614 1 101580594.593 4     -1411.819          34.000  
J01  39100379.048 9                      -424.793          17.000                                                                  
G17                                                                  23915354.360 9                         2.466          12.000                                                  
R20                                                                  22435457.427 8                     -2269.940          31.000  
> 2021 06 10 03 36 43.0050000  0 30                     
G01  22626136.197 9                     -3144.266          15.000    22626133.245 9                     -2458.154          21.000                                                  
G07  23655383.806 9                     -3563.674          19.000    23655379.773 9                     -2767.111          22.000                                                  
G22  24292442.243 4 127657643.79615     -1084.584          32.000                                                                                                                  
G14  22816997.556 9                      1573.154          18.000    22816997.206 9                      1218.235          23.000                                                  
C13  38484259.000 1 200397637.882 4       220.056          34.000    38484253.656 4 154960144.283 4       169.675          35.000  
C34  25613934.420 9                     -2321.462          14.000                                                                  
C25  23861519.183 1 124253191.421 4     -1984.369          34.000                                                                  
C11  24340448.585 9                     -1833.430          12.000    24340442.420 9                     -1413.746          18.000  
C23  24794438.848 1 129111149.700 4       971.249          33.000                                                                  
C08  38027761.694 2 198020531.974 5      -128.223          31.000    38027748.523 1 153121987.743 3       -99.384          37.000  
R21  22611159.291 4                       112.965          28.000    22611158.816 2  94108682.60515        87.286          32.000  
R10  20920916.394 8                       277.655          26.000                                                                  
R09  21909082.572 2 116993270.897 4     -3466.557          34.000    21909080.889 1  90994755.247 2     -2696.241          39.000  
G30  22940787.238 1 120554651.190 3     -1736.131          36.000    22940786.501 2  93938688.860 4     -1353.169          34.000                                                  
G03  23751476.497 2 124814881.540 5       901.375          32.000    23751478.289 1  97258347.905 3       702.583          36.000                                                  
G19  25158891.588 9                      1056.656          23.000                                                                                                                  
S28  38903264.145 1 204437990.763 3      -545.842          36.000  
C07  37618459.331 2 195889185.189 5       -39.242          32.000    37618444.661 1 151473879.573 3       -31.162          35.000  
E26  25631287.340 2 134693309.014 4       565.573          33.000    25631291.393 1 103206595.343 3       432.573          35.000  
S37  38090507.774 2 200166955.448 4      -550.570          33.000  
E21  25547562.644 2 134253351.851 5       809.573          32.000    25547564.944 1 102869459.341 2       620.627          38.000  
E27  25641140.048 1 134745116.706 3     -1724.962          35.000    25641142.972 1 103246248.493 2     -1322.075          39.000  
E14  20483678.075 9                     -1549.689          22.000    20483675.713 2                     -1187.134          32.000  
J07  38090514.215 2                      -550.260          30.000    38090510.460 1 155974269.502 2      -428.689          38.000  
J03  41292154.754 2                      -840.448          27.000    41292155.002 2 169084477.675 4      -654.516          34.000  
J02  38123730.214 1 200341527.221 4       281.574          35.000    38123729.414 1 156110314.227 2       218.949          38.000  
E13  25227827.196 4                     -1843.014          30.000    25227827.345 1 101582006.836 4     -1412.508          34.000  
J01  39100458.748 9                      -424.793          17.000                                                                  
G17                                                                  23915353.660 9                        -4.896          11.000                                                  
R20                                                                  22436001.371 8                     -2268.884          30.000  
> 2021 06 10 03 36 44.0050000  0 30                     
G01  22626734.962 9                     -3145.155          15.000    22626731.027 9                     -2453.164          21.000                                                  
G07  23656063.582 9                     -3555.387          19.000    23656058.566 9                     -2773.851          22.000                                                  
G22  24292648.522 2 127658727.876 5     -1085.150          31.000                                                                                                                  
G14  22816699.096 9                      1569.929          18.000    22816699.053 9                      1213.960          22.000                                                  
C13  38484216.968 1 200397418.274 4       218.618          35.000    38484211.280 2 154959974.393 5       170.443          35.000  
C34  25614378.440 9                     -2328.886          15.000                                                                  
C25  23861900.302 1 124255175.701 3     -1984.452          34.000                                                                  
C11  24340804.065 9                     -1839.588          13.000    24340796.442 9                     -1419.224          18.000  
C23  24794252.461 1 129110179.025 5       969.709          33.000                                                                  
C08  38027786.500 2                      -129.576          31.000    38027773.367 1 153122087.643 3      -100.424          37.000  
R21  22611138.207 4                       112.044          28.000    22611137.794 2                        86.843          32.000  
R10  20920865.848 8                       275.722          27.000                                                                  
R09  21909731.869 2 116996737.995 4     -3467.053          34.000    21909730.201 1  90997451.903 2     -2697.207          39.000  
G30  22941117.629 1 120556387.756 3     -1737.115          36.000    22941116.968 2  93940042.014 4     -1353.480          34.000                                                  
G03  23751304.961 2 124813980.773 5       900.198          32.000    23751306.768 1  97257645.995 3       701.774          36.000                                                  
G19  25158688.261 9                      1057.293          23.000                                                                                                                  
S28  38903367.993 1 204438536.510 4      -546.363          36.000  
C07  37618467.148 1 195889224.708 4       -39.656          32.000    37618452.163 1 151473910.111 4       -31.086          35.000  
E26  25631179.871 2 134692744.832 4       563.461          33.000    25631183.978 1 103206163.022 3       431.643          35.000  
S37  38090612.510 2 200167505.255 5      -550.005          33.000  
E21  25547408.569 2 134252542.083 5       809.548          32.000    25547410.697 1 102868838.863 3       620.438          38.000  
E27  25641468.393 1 134746842.214 3     -1726.180          35.000    25641471.186 1 103247570.614 2     -1322.437          39.000  
E14  20483974.474 9                     -1550.333          23.000    20483970.348 2  82480451.344 5     -1188.682          31.000  
J07  38090618.893 2                      -549.338          30.000    38090615.124 1 155974697.937 3      -428.611          38.000  
J03  41292314.727 2                      -840.716          27.000    41292314.943 2 169085132.721 4      -655.291          34.000  
J02  38123676.564 1 200341245.982 3       281.205          35.000    38123675.849 1 156110095.085 3       218.709          38.000  
E13  25228177.999 4                     -1843.216          30.000    25228178.007 1 101583419.203 4     -1412.551          34.000  
J01  39100539.948 9                      -424.793          17.000                                                                  
G17                                                                  23915355.724 9                        -9.304          13.000                                                  
R20                                                                  22436545.609 8                     -2268.481          30.000  
> 2021 06 10 03 36 45.0050000  0 30                     
G01  22627334.409 9                     -3144.700          15.000    22627329.934 9                     -2454.777          21.000                                                  
G07  23656742.182 9                     -3552.166          19.000    23656737.588 9                     -2777.866          22.000                                                  
G22  24292855.042 4 127659812.639 5     -1085.480          31.000                                                                                                                  
G14  22816402.514 9                      1567.660          19.000    22816400.963 9                      1223.542          23.000                                                  
C13  38484175.012 1 200397198.910 4       218.912          34.000    38484169.315 2 154959804.833 4       169.015          35.000  
C34  25614823.510 9                     -2317.109          14.000                                                                  
C25  23862281.488 1 124257160.590 4     -1985.241          34.000                                                                  
C11  24341157.562 9                     -1844.860          14.000    24341147.401 9                     -1416.666          19.000  
C23  24794066.024 1 129109208.908 4       970.032          33.000                                                                  
C08  38027811.495 2                      -129.806          31.000    38027798.264 1 153122187.765 3      -100.757          37.000  
R21  22611116.656 4                       111.916          27.000    22611116.941 2  94108507.665 5        86.022          32.000  
R10  20920814.260 8                       275.898          27.000                                                                  
R09  21910381.462 2 117000205.879 4     -3468.244          34.000    21910379.651 1  91000149.148 2     -2697.996          39.000  
G30  22941448.324 1 120558125.002 3     -1738.112          36.000    22941447.552 2  93941395.722 4     -1354.517          34.000                                                  
G03  23751133.530 2 124813080.568 5       899.804          32.000    23751135.395 1  97256944.545 3       701.416          36.000                                                  
G19  25158486.851 9                      1058.455          23.000                                                                                                                  
S28  38903471.843 1 204439082.435 3      -546.123          36.000  
C07  37618474.708 1 195889264.366 4       -39.854          32.000    37618459.819 1 151473940.786 3       -31.040          35.000  
E26  25631072.705 2 134692180.999 4       563.428          33.000    25631076.642 1 103205730.957 3       432.076          35.000  
S37  38090717.060 2 200168055.194 4      -550.513          33.000  
E21  25547254.547 2 134251732.772 5       808.556          32.000    25547256.691 1 102868218.748 3       619.666          38.000  
E27  25641796.986 1 134748568.197 3     -1726.510          35.000    25641799.756 1 103248893.126 2     -1322.703          39.000  
E14  20484270.187 9                     -1547.751          23.000    20484265.608 2  82481640.008 5     -1189.125          32.000  
J07  38090723.340 4                      -550.560          30.000    38090719.764 1 155975126.469 2      -428.674          38.000  
J03  41292474.687 2                      -840.338          27.000    41292474.879 2 169085787.743 4      -655.237          34.000  
J02  38123623.141 1 200340964.997 3       280.389          35.000    38123622.421 1 156109876.115 3       218.562          38.000  
E13  25228529.128 2                     -1844.177          30.000    25228528.927 1 101584831.830 3     -1412.706          34.000  
J01  39100619.862 9                      -424.793          17.000                                                                  
G17                                                                  23915351.838 9                        21.946          12.000                                                  
R20                                                                  22437092.088 8                     -2270.562          30.000  
> 2021 06 10 03 36 46.0050000  0 30                     
G01  22627929.701 9                     -3149.421          14.000    22627928.191 9                     -2449.964          21.000                                                  
G07  23657418.308 9                     -3558.862          19.000    23657415.283 9                     -2773.599          22.000                                                  
G22  24293061.593 2 127660898.042 5     -1085.934          32.000                                                                                                                  
G14  22816103.741 9                      1562.577          18.000    22816100.689 9                      1221.638          23.000                                                  
C13  38484132.989 1 200396979.773 4       219.386          34.000    38484127.348 1 154959635.358 4       169.837          34.000  
C34  25615269.165 9                     -2324.965          13.000                                                                  
C25  23862662.842 1 124259146.053 3     -1985.640          34.000                                                                  
C11  24341513.145 9                     -1845.324          13.000    24341500.780 9                     -1423.612          18.000  
C23  24793879.929 1 129108239.385 4       968.975          33.000                                                                  
C08  38027836.467 2                      -129.919          31.000    38027823.206 1 153122288.046 3      -100.277          36.000  
R21  22611093.534 8                       111.126          28.000    22611095.956 2  94108420.777 5        86.486          32.000  
R10  20920763.307 9                       275.048          27.000                                                                  
R09  21911031.022 2 117003674.476 4     -3469.016          34.000    21911029.172 1  91002846.923 2     -2698.191          39.000  
G30  22941779.053 1 120559862.820 3     -1738.068          36.000    22941778.260 2  93942749.874 4     -1354.673          34.000                                                  
G03  23750962.348 2 124812180.936 4       899.288          32.000    23750964.118 1  97256243.525 3       700.823          36.000                                                  
G19  25158286.218 9                      1058.719          24.000                                                                                                                  
S28  38903575.890 1 204439628.348 3      -545.645          36.000  
C07  37618482.412 2 195889304.216 4       -40.217          32.000    37618467.468 1 151473971.558 4       -30.522          34.000  
E26  25630965.595 2 134691617.599 4       563.081          33.000    25630969.409 1 103205299.231 3       431.939          35.000  
S37  38090821.623 1 200168605.204 4      -549.804          33.000  
E21  25547100.481 2 134250923.800 5       808.549          32.000    25547102.833 1 102867598.883 3       619.420          38.000  
E27  25642125.536 1 134750294.613 3     -1726.466          35.000    25642128.245 1 103250215.975 2     -1322.991          39.000  
E14  20484565.293 9                     -1553.029          22.000    20484561.156 1                     -1189.564          32.000  
J07  38090827.946 2                      -549.519          30.000    38090824.478 1 155975555.041 3      -428.454          38.000  
J03  41292634.853 2                      -840.449          27.000    41292634.835 1 169086442.763 4      -654.981          34.000  
J02  38123569.856 1 200340684.134 3       280.847          35.000    38123568.969 1 156109657.274 2       219.028          38.000  
E13  25228879.995 2 132578647.83615     -1843.840          30.000    25228879.931 1 101586244.710 5     -1412.960          34.000  
J01  39100701.196 9                      -424.793          18.000                                                                  
G17                                                                  23915346.989 9                        21.946           9.000                                                  
R20                                                                  22437637.464 4                     -2269.116          31.000  
> 2021 06 10 03 36 47.0050000  0 30                     
G01  22628531.977 9                     -3149.421          12.000    22628526.092 9                     -2444.952          22.000                                                  
G07  23658095.660 9                     -3557.774          19.000    23658093.486 9                     -2771.717          21.000                                                  
G22  24293268.203 4                     -1085.844          31.000                                                                                                                  
G14  22815805.696 9                      1559.759          18.000    22815801.690 9                      1221.888          23.000                                                  
C13  38484090.954 1 200396760.762 4       218.806          34.000    38484085.432 1 154959466.015 3       169.340          34.000  
C34  25615716.619 9                     -2351.069          13.000                                                                  
C25  23863044.168 1 124261131.895 4     -1985.945          34.000                                                                  
C11  24341866.742 9                     -1844.652          14.000    24341853.555 9                     -1413.748          18.000  
C23  24793693.854 1 129107270.182 4       969.526          33.000                                                                  
C08  38027861.182 2                      -130.365          31.000    38027848.170 1 153122388.445 3      -100.731          36.000  
R21  22611070.665 8                       110.878          27.000    22611075.301 2  94108334.208 5        86.390          32.000  
R10  20920712.312 8                       274.040          27.000                                                                  
R09  21911681.083 2 117007143.603 4     -3468.706          34.000    21911678.846 1  91005545.141 2     -2698.358          39.000  
G30  22942109.770 1 120561601.124 3     -1738.353          36.000    22942108.949 2  93944104.364 4     -1354.692          34.000                                                  
G03  23750791.219 2 124811281.668 5       898.588          32.000    23750792.969 1  97255542.792 3       700.726          36.000                                                  
G19  25158082.960 9                      1057.475          23.000                                                                                                                  
S28  38903679.716 1 204440174.101 3      -545.821          36.000  
C07  37618490.037 2                       -39.437          32.000    37618475.172 1 151474002.286 4       -30.564          34.000  
E26  25630858.456 2 134691054.381 4       563.660          33.000    25630862.285 1 103204867.720 3       431.731          35.000  
S37  38090926.332 2 200169155.156 5      -549.823          33.000  
E21  25546946.739 2 134250115.008 5       808.407          32.000    25546948.974 1 102866979.161 3       619.543          38.000  
E27  25642454.011 1 134752021.327 4     -1726.698          35.000    25642456.697 1 103251539.045 2     -1323.337          39.000  
E14  20484860.383 9                     -1553.769          22.000    20484856.871 1  82484019.605 5     -1190.423          31.000  
J07  38090932.152 4                      -548.546          30.000    38090929.191 1 155975983.569 3      -428.278          38.000  
J03  41292794.688 2                      -840.182          27.000    41292794.807 1 169087097.597 4      -654.582          34.000  
J02  38123516.541 1 200340403.330 4       281.062          35.000    38123515.484 1 156109438.461 3       218.817          38.000  
E13  25229230.781 2                     -1844.364          30.000    25229230.912 1 101587657.718 4     -1413.250          34.000  
J01  39100782.615 9                      -424.793          17.000                                                                  
G17                                                                  23915345.188 9                        21.946           8.000                                                  
R20                                                                  22438183.069 4                     -2269.995          31.000  
> 2021 06 10 03 36 48.0050000  0 29                     
G01  22629131.467 9                     -3156.058          12.000    22629123.526 9                     -2453.111          21.000                                                  
G07  23658772.991 9                     -3553.730          18.000    23658769.321 9                     -2768.043          22.000                                                  
G22  24293475.002 2                     -1086.387          31.000                                                                                                                  
G14  22815507.246 9                      1570.528          18.000    22815503.828 9                      1222.983          23.000                                                  
C13  38484049.060 1 200396542.002 4       218.109          34.000    38484043.510 1 154959296.874 4       168.505          34.000  
C34  25616162.945 9                     -2335.197          13.000                                                                  
C25  23863425.692 1 124263118.299 4     -1987.093          34.000                                                                  
C11  24342220.234 9                     -1829.282          15.000    24342207.419 9                     -1423.025          18.000  
C23  24793507.800 1 129106301.627 5       967.958          33.000                                                                  
C08  38027886.194 2                      -130.094          30.000    38027873.153 1 153122489.039 3      -100.795          36.000  
R21  22611049.644 8                       110.071          28.000    22611054.617 2  94108248.061 5        85.760          32.000  
R10  20920661.704 8                       273.117          27.000                                                                  
R09  21912330.792 2 117010613.523 4     -3470.636          34.000    21912328.518 1  91008243.967 2     -2699.609          39.000  
G30  22942440.708 1 120563340.130 3     -1739.805          36.000    22942439.804 2  93945459.441 4     -1355.461          34.000                                                  
G03  23750620.078 2 124810382.897 5       898.021          31.000    23750621.923 1  97254842.500 3       699.915          36.000                                                  
G19  25157881.529 9                      1056.383          23.000                                                                                                                  
S28  38903783.693 1 204440720.127 4      -546.761          36.000  
C07  37618497.602 2 195889383.825 5       -40.043          32.000    37618482.846 1 151474033.127 4       -31.156          34.000  
E26  25630751.685 2 134690491.685 4       562.225          33.000    25630755.309 1 103204436.556 4       430.760          35.000  
S37  38091030.976 2 200169705.220 4      -550.610          33.000  
E21  25546793.262 2 134249306.621 5       808.356          32.000    25546795.085 1 102866359.756 3       619.147          37.000  
E27  25642782.620 1 134753748.480 3     -1727.750          35.000    25642785.346 1 103252862.444 2     -1323.721          39.000  
E14  20485155.350 9                     -1554.789          22.000    20485152.688 1  82485210.615 5     -1191.589          32.000  
J07  38091036.941 2                      -550.013          30.000    38091033.889 1 155976412.172 3      -429.027          38.000  
J03  41292954.513 2                      -840.566          27.000    41292954.752 1 169087752.511 4      -655.697          34.000  
J02  38123463.305 1 200340122.695 3       280.520          35.000    38123462.105 1 156109219.766 2       218.648          38.000  
E13  25229581.902 2                     -1844.407          30.000    25229581.997 1 101589070.943 4     -1413.448          34.000  
J01  39100862.204 9                      -424.793          17.000                                                                  
R20                                                                  22438728.787 4                     -2270.367          31.000  
> 2021 06 10 03 36 49.0050000  0 29                     
G01  22629731.273 9                     -3144.772          11.000    22629722.636 9                     -2456.679          22.000                                                  
G22  24293681.771 2 127664156.820 5     -1084.565          31.000                                                                                                                  
G14  22815209.029 9                      1568.939          19.000    22815206.321 9                      1223.265          24.000                                                  
C13  38484007.204 1 200396323.825 4       216.616          35.000    38484001.792 1 154959128.143 4       168.764          34.000  
C34  25616611.467 9                     -2328.366          14.000                                                                  
C25  23863807.285 1 124265105.460 4     -1987.840          34.000                                                                  
C11  24342574.990 9                     -1838.969          18.000    24342563.111 9                     -1420.965          29.000  
C23  24793321.953 1 129105334.318 5       965.715          33.000                                                                  
C08  38027911.234 2                      -130.742          31.000    38027898.244 1 153122590.000 3      -101.642          36.000  
R21  22611028.677 8                       107.297          28.000    22611034.221 2                        82.931          32.000  
R10  20920609.744 8                       271.860          27.000                                                                  
R09  21912980.713 4 117014083.960 4     -3470.877          33.000    21912978.393 1  91010943.183 2     -2698.781          39.000  
G30  22942771.921 1 120565080.382 3     -1741.195          37.000    22942771.126 2  93946815.474 4     -1357.024          35.000                                                  
G03  23750448.881 2 124809483.979 5       900.109          32.000    23750450.837 1  97254142.032 3       701.615          36.000                                                  
G19  25157682.229 9                      1053.911          25.000                                                                                                                  
S28  38903887.760 1 204441267.009 4      -548.069          36.000  
C24  27284486.350 9                     -3770.212          24.000                                                                  
C07  37618505.190 2 195889423.714 5       -39.853          32.000    37618490.435 1 151474063.941 4       -30.413          34.000  
E26  25630644.823 2 134689930.059 4       560.202          34.000    25630648.511 1 103204006.197 3       429.544          35.000  
S37  38091135.555 1 200170255.083 4      -549.007          33.000  
E21  25546639.453 2 134248498.935 5       807.660          33.000    25546641.442 1 102865740.903 3       618.353          38.000  
E27  25643111.342 1 134755475.723 3     -1726.734          36.000    25643114.069 1 103254185.892 3     -1322.742          38.000  
E14  20485451.922 9                     -1553.497          22.000    20485448.654 1                     -1191.062          30.000  
J07  38091141.643 2                      -548.812          30.000    38091138.550 1 155976840.689 2      -428.367          38.000  
J03  41293114.438 2                      -839.545          28.000    41293114.566 1 169088407.134 4      -653.942          34.000  
J02  38123409.895 1 200339841.971 3       280.772          35.000    38123408.730 1 156109001.048 2       219.070          39.000  
E13  25229932.979 2                     -1844.855          30.000    25229933.138 1 101590484.497 4     -1413.530          34.000  
G07                                                                  23659447.882 9                     -2778.146          22.000                                                  
R20                                                                  22439274.751 4                     -2271.497          30.000  
> 2021 06 10 03 36 50.0050000  0 28                     
G01  22630329.557 9                     -3146.494          19.000    22630321.608 9                     -2452.179          25.000                                                  
G22  24293887.991 2                     -1081.594          31.000                                                                                                                  
G14  22814909.674 9                      1567.822          19.000    22814907.556 8                      1220.501          26.000                                                  
C13  38483965.660 1 200396106.881 4       216.239          34.000    38483960.206 1 154958960.317 4       167.831          33.000  
C34  25617056.849 9                     -2308.675          15.000                                                                  
C25  23864189.061 1 124267093.558 5     -1988.857          34.000                                                                  
C11  24342927.338 9                     -1834.827          19.000    24342912.560 8                     -1421.685          34.000  
C23  24793136.883 1 129104370.195 5       962.441          34.000                                                                  
C08  38027936.284 2                      -130.776          30.000    38027923.399 1 153122691.130 3      -101.375          36.000  
R21  22611009.335 8                       103.751          30.000    22611014.574 4                        78.652          32.000  
R10  20920558.021 8                       269.955          26.000                                                                  
R09  21913630.401 2 117017553.462 4     -3468.591          33.000    21913628.160 2  91013641.709 2     -2698.232          39.000  
G30  22943103.597 1 120566823.706 3     -1744.896          36.000    22943102.871 2                     -1359.523          34.000                                                  
G03  23750277.162 1 124808581.905 4       902.984          34.000    23750279.216 1  97253439.119 3       704.247          37.000                                                  
G19  25157485.030 8                      1049.047          26.000                                                                                                                  
S28  38903992.276 1 204441816.370 4      -550.846          37.000  
C24  27285216.934 8                     -3768.274          35.000                                                                  
C07  37618512.594 2 195889462.342 5       -37.948          32.000    37618497.833 1 151474093.857 4       -29.618          34.000  
E26  25630538.700 2 134689371.657 4       557.068          34.000    25630541.929 1 103203578.414 5       426.164          34.000  
S37  38091239.849 2 200170803.521 5      -548.049          32.000  
E21  25546485.802 2 134247692.583 5       805.353          33.000    25546487.965 1 102865123.007 3       617.553          38.000  
E27  25643439.811 1 134757200.995 3     -1724.647          36.000    25643442.487 1 103255507.896 2     -1321.698          38.000  
E14  20485747.736 9                     -1558.880          23.000    20485744.413 1                     -1190.952          32.000  
J07  38091245.964 2                      -547.469          29.000    38091242.780 1 155977268.058 3      -427.385          37.000  
J03  41293274.005 2                      -837.941          27.000    41293274.095 2 169089060.550 4      -652.980          35.000  
J02  38123356.056 1 200339559.379 3       283.367          36.000    38123355.046 1 156108780.810 3       220.490          37.000  
E13  25230283.862 4                     -1845.663          29.000    25230284.192 1 101591898.133 4     -1413.383          35.000  
G07                                                                  23660124.659 9                     -2780.004          21.000                                                  
> 2021 06 10 03 36 51.0050000  0 29                     
G01  22630928.047 9                     -3150.318          25.000    22630922.866 8                     -2450.425          28.000                                                  
G22  24294093.465 2 127666320.487 5     -1079.819          31.000                                                                                                                  
G14  22814612.187 9                      1563.421          29.000    22814608.228 8                      1219.635          27.000                                                  
C13  38483924.202 2                       215.540          32.000    38483918.774 1 154958793.362 4       167.835          33.000  
C34  25617500.377 9                     -2330.693          15.000                                                                  
C25  23864570.959 1 124269082.579 4     -1989.314          34.000                                                                  
C11  24343281.649 9                     -1842.260          19.000    24343265.114 4                     -1421.375          29.000  
C23  24792952.398 2 129103409.067 5       960.104          32.000                                                                  
C08  38027961.505 2                      -130.839          30.000    38027948.514 1 153122792.552 4      -102.295          33.000  
R21  22610989.779 8                        99.294          29.000    22610995.556 4                        77.164          32.000  
R10  20920507.852 8                       267.914          26.000                                                                  
R09  21914279.898 4                     -3469.196          29.000    21914277.932 2  91016339.902 3     -2697.721          35.000  
G30  22943435.922 1 120568569.803 4     -1747.644          38.000    22943435.163 2                     -1360.641          30.000                                                  
G03  23750105.086 1 124807677.279 4       905.369          34.000    23750107.110 1  97252734.201 3       705.631          37.000                                                  
G17  23915334.586 9                        -1.666          19.000                                                                                                                  
G19  25157286.137 8                      1045.020          26.000                                                                                                                  
S28  38904097.226 1 204442367.763 4      -552.202          36.000  
C24  27285943.474 4                     -3766.394          34.000                                                                  
C07  37618519.894 2 195889500.049 5       -37.251          32.000    37618505.042 1 151474123.002 4       -28.562          34.000  
E26  25630432.866 2 134688815.993 5       554.244          33.000    25630436.268 1 103203152.647 4       424.640          36.000  
S37  38091343.932 2 200171350.814 5      -546.415          33.000  
E21  25546332.486 2 134246887.292 5       804.422          32.000    25546334.965 1 102864505.931 2       616.843          38.000  
E27  25643767.861 1 134758924.837 3     -1723.852          36.000    25643770.192 1 103256828.636 3     -1320.338          36.000  
E14  20486042.100 9                     -1558.813          24.000    20486039.331 4                     -1190.957          33.000  
J07  38091349.928 2                      -546.195          30.000    38091346.786 2 155977694.441 5      -426.780          31.000  
J03  41293433.321 2                      -836.566          27.000    41293433.411 2 169089712.935 4      -652.073          34.000  
J02  38123302.198 1 200339275.402 3       284.468          35.000    38123300.946 1 156108559.482 4       221.952          35.000  
E13  25230634.848 4                     -1845.468          28.000    25230635.480 1 101593311.997 4     -1413.991          35.000  
G07                                                                  23660801.359 9                     -2759.546          19.000                                                  
> 2021 06 10 03 36 52.0050000  0 30                     
G01  22631525.857 9                     -3138.345          24.000    22631521.915 9                     -2449.152          26.000                                                  
G07  23661485.696 9                     -3564.175          21.000    23661476.866 9                     -2775.634          19.000                                                  
G22  24294298.604 4                     -1077.011          30.000                                                                                                                  
G14  22814315.935 9                      1562.700          23.000    22814313.406 9                      1222.143          25.000                                                  
C13  38483882.737 2                       213.923          32.000    38483877.506 2                       161.025          28.000  
C34  25617946.134 9                     -2318.250          18.000                                                                  
C25  23864953.123 1 124271072.522 5     -1990.604          31.000                                                                  
C11  24343635.993 9                     -1840.239          19.000    24343618.707 4                     -1422.652          33.000  
C23  24792768.432 2 129102450.692 5       956.891          33.000                                                                  
C08  38027986.713 2                      -131.425          31.000    38027973.785 1 153122894.200 3      -101.754          37.000  
R21  22610972.781 8                        96.314          29.000    22610977.300 2                        73.590          32.000  
R10  20920456.813 8                       266.301          26.000                                                                  
R09  21914929.382 4                     -3468.927          34.000    21914927.434 2  91019037.625 4     -2697.583          40.000  
G30  22943768.732 1 120570318.517 4     -1750.613          36.000    22943767.903 2                     -1363.131          32.000                                                  
G03  23749932.495 2 124806770.222 5       908.210          33.000    23749934.536 1  97252027.413 3       707.558          36.000                                                  
G17  23915335.123 9                        11.392          19.000                                                                                                                  
G19  25157088.722 8                      1041.872          26.000                                                                                                                  
S28  38904202.591 1 204442921.349 4      -555.905          34.000  
C24  27286666.869 4                     -3766.221          30.000                                                                  
C07  37618527.081 2 195889536.921 5       -37.319          32.000    37618512.194 1 151474151.485 4       -27.875          35.000  
E26  25630327.526 2 134688263.024 5       551.768          34.000    25630331.451 1 103202728.976 3       423.109          37.000  
S37  38091447.788 2                      -546.204          33.000  
E21  25546179.237 2 134246083.102 5       803.578          33.000    25546181.926 1 102863889.770 3       616.140          37.000  
E27  25644095.477 1 134760647.224 4     -1722.162          35.000    25644097.926 1 103258148.437 3     -1319.200          38.000  
E14  20486338.096 9                     -1556.498          24.000    20486335.709 8                     -1191.108          30.000  
J07  38091454.006 2                      -546.437          30.000    38091450.668 1 155978120.077 3      -425.099          36.000  
J03  41293592.337 2                      -835.202          29.000    41293592.425 1 169090364.334 4      -650.965          35.000  
J02  38123247.769 1 200338990.029 3       285.385          35.000    38123246.700 1 156108337.166 3       222.294          38.000  
E13  25230985.784 4                     -1845.684          28.000    25230986.719 1 101594726.149 4     -1414.772          35.000  
R20                                                                  22440914.797 9                     -2271.056          25.000  
> 2021 06 10 03 36 53.0050000  0 30                     
G01  22632120.358 9                     -3145.157          31.000    22632119.446 8  92674748.81615     -2450.018          35.000                                                  
G07  23662164.150 9                     -3559.673          21.000    23662155.236 9                     -2782.014          19.000                                                  
G22  24294503.497 2                     -1077.019          32.000                                                                                                                  
G14  22814017.400 9                      1575.529          21.000    22814015.328 9                      1228.879          22.000                                                  
C13  38483841.708 2 200395462.638 5       213.418          34.000    38483836.596 2 154958462.199 5       164.781          36.000  
C34  25618386.783 9                     -2318.387          29.000                                                                  
C25  23865335.267 2                     -1992.079          30.000                                                                  
C11  24343987.037 9                     -1830.299          18.000    24343968.860 4                     -1419.442          30.000  
C23  24792584.735 1 129101494.194 4       955.563          33.000                                                                  
C08  38028012.104 2                      -133.773          31.000    38027999.170 1 153122996.317 2      -102.460          38.000  
R21  22610956.405 8                        95.010          29.000    22610959.402 2  94107852.336 5        74.082          33.000  
R10  20920407.230 8                       264.471          26.000                                                                  
R09  21915579.014 4 117027960.225 5     -3469.276          33.000    21915577.038 2  91021735.844 3     -2698.745          38.000  
G30  22944101.931 1 120572069.398 4     -1752.214          36.000    22944101.129 2  93952261.386 5     -1364.949          36.000                                                  
G03  23749759.651 1 124805862.247 5       908.122          33.000    23749761.812 1  97251319.893 4       707.390          37.000                                                  
G17  23915334.922 9                         4.154          21.000                                                                                                                  
G19  25156891.317 8                      1041.551          27.000                                                                                                                  
S28  38904308.229 1 204443476.581 4      -555.292          37.000  
C24  27287389.822 9                     -3764.614          22.000                                                                  
C07  37618534.105 2                       -35.610          32.000    37618519.138 1 151474179.710 4       -27.311          33.000  
E26  25630222.702 1 134687712.044 4       551.020          34.000    25630226.662 1 103202306.794 4       421.877          36.000  
S37  38091551.538 2 200172442.918 5      -545.969          33.000  
E21  25546026.173 2 134245279.870 4       802.923          33.000    25546028.985 1 102863274.251 2       615.837          39.000  
E27  25644423.281 1 134762369.194 4     -1722.041          35.000    25644425.740 1 103259467.887 3     -1319.320          38.000  
E14  20486632.622 8                     -1554.904          35.000    20486631.783 4  82491174.86315     -1191.208          41.000  
J07  38091557.886 4                      -546.632          30.000    38091554.525 1 155978545.453 4      -425.429          36.000  
J03  41293751.195 4                      -836.049          30.000    41293751.356 1 169091015.216 3      -651.086          35.000  
J02  38123193.339 1 200338704.202 3       285.764          35.000    38123192.224 1 156108114.406 3       223.158          37.000  
E13  25231336.426 4                     -1845.427          28.000    25231338.129 1 101596140.373 3     -1414.286          36.000  
E15                                                                  28548699.003 9                     -2337.104          28.000  
> 2021 06 10 03 36 54.0050000  0 31                     
G01  22632717.092 8                     -3144.429          32.000    22632720.784 8  92677199.187 4     -2449.990          37.000                                                  
G07  23662840.303 8                     -3563.440          28.000    23662833.033 9                     -2778.778          21.000                                                  
G28  24239005.030 9                      1950.836          18.000                                                                                                                  
G22  24294708.531 4                     -1077.369          30.000                                                                                                                  
G21  25371133.601 9                     -3718.176          30.000                                                                                                                  
G14  22813721.996 9                      1560.158          20.000    22813717.194 9                      1216.336          21.000                                                  
C13  38483800.607 2                       212.651          33.000    38483795.648 2 154958297.377 5       164.780          33.000  
C34  25618827.261 8                     -2318.593          34.000                                                                  
C25  23865717.698 2                     -1993.038          34.000                                                                  
C11  24344337.866 9                     -1837.322          33.000    24344323.152 4  98024501.10535     -1420.350          42.000  
C23  24792401.095 2 129100537.836 5       956.380          33.000                                                                  
C08  38028037.485 2                      -132.462          31.000    38028024.684 1 153123098.660 3      -103.069          37.000  
R21  22610935.521 8                        95.847          30.000    22610941.622 2  94107778.458 5        74.112          33.000  
R10  20920355.846 8                       266.022          25.000                                                                  
R09  21916228.950 4 117031430.327 5     -3471.044          33.000    21916227.006 2  91024434.764 3     -2699.572          38.000  
G30  22944435.208 1 120573820.966 4     -1752.659          34.000    22944434.507 2                     -1366.858          31.000                                                  
G03  23749586.986 1 124804954.779 5       906.122          34.000    23749589.115 1  97250612.788 4       705.874          36.000                                                  
G17  23915334.504 9                        23.975          18.000                                                                                                                  
G19  25156694.094 9                      1042.073          25.000                                                                                                                  
S28  38904413.799 2                      -556.691          32.000  
C24  27288115.106 9                     -3762.290          21.000                                                                  
C07  37618541.093 2                       -35.917          32.000    37618526.110 1 151474207.691 4       -28.100          34.000  
E26  25630117.829 1 134687161.653 5       550.285          34.000    25630121.579 1 103201884.961 4       422.086          38.000  
S37  38091655.419 2 200172989.049 5      -547.276          33.000  
E21  25545873.076 2 134244476.416 4       804.261          33.000    25545876.068 1 102862658.654 3       616.266          38.000  
E27  25644751.138 1 134764091.681 4     -1722.758          35.000    25644753.445 1 103260787.686 3     -1320.411          38.000  
E14  20486924.266 4 107659535.62115     -1553.999          35.000    20486926.304 2  82492366.179 4     -1191.039          40.000  
J07  38091661.593 4                      -546.315          30.000    38091658.493 1 155978970.997 4      -425.934          36.000  
J03  41293910.171 4                      -834.042          30.000    41293910.115 1 169091665.606 4      -650.447          35.000  
J02  38123139.019 1 200338418.626 4       284.245          35.000    38123137.883 1 156107891.877 3       221.906          37.000  
E13  25231687.539 4                     -1845.090          30.000    25231689.200 1 101597554.510 3     -1414.145          37.000  
> 2021 06 10 03 36 55.0050000  0 32                     
G01  22633318.452 8                     -3143.369          33.000    22633318.310 8                     -2448.213          33.000                                                  
G07  23663511.841 8                     -3565.531          33.000    23663509.284 9                     -2779.045          29.000                                                  
G28  24238630.315 9                      1950.836          18.000                                                                                                                  
G22  24294913.646 2                     -1078.854          29.000                                                                                                                  
G21  25371835.143 9                     -3709.509          30.000                                                                                                                  
G14  22813423.455 9                      1572.684          21.000    22813416.543 9                      1221.919          22.000                                                  
C13  38483759.626 4                       211.080          30.000    38483753.633 4                       162.241          28.000  
C34  25619271.246 4                     -2316.143          33.000                                                                  
C25  23866100.342 1 124277048.218 4     -1993.652          36.000                                                                  
C11  24344688.506 8                     -1835.329          32.000    24344674.396 4  98025920.75224     -1419.651          37.000  
C23  24792217.251 1 129099580.486 5       958.339          32.000                                                                  
C08  38028062.888 2                      -133.374          31.000    38028050.210 1 153123201.517 3      -103.149          35.000  
R21  22610920.392 8                        95.884          29.000    22610923.757 2  94107704.224 4        74.336          35.000  
R10  20920307.157 8                       265.468          25.000                                                                  
R09  21916879.276 2 117034902.660 5     -3473.748          34.000    21916877.235 2  91027135.431 3     -2702.095          39.000  
G30  22944768.677 1 120575573.206 5     -1752.434          34.000    22944768.096 2                     -1365.441          32.000                                                  
G03  23749414.726 1 124804049.025 3       904.334          38.000    23749416.798 1  97249907.019 4       704.806          33.000                                                  
G17  23915335.674 9                        -1.593          20.000                                                                                                                  
G19  25156495.472 9                      1044.079          27.000                                                                                                                  
S28  38904519.673 2 204444587.452 5      -554.364          35.000  
C24  27288841.518 9                     -3760.736          19.000                                                                  
C07  37618548.239 2 195889645.510 5       -35.458          33.000    37618533.059 1 151474235.472 4       -26.972          33.000  
E26  25630012.929 1 134686611.491 5       550.450          33.000    25630016.741 1                       418.747          33.000  
S37  38091759.759 2 200173536.358 5      -547.786          33.000  
E21  25545720.093 2 134243672.234 5       804.693          33.000    25545722.940 1 102862042.504 3       616.775          36.000  
E27  25645079.146 1 134765815.660 3     -1724.675          35.000    25645081.518 1 103262108.617 3     -1321.603          36.000  
E14  20487223.274 4                     -1555.745          34.000    20487222.311 2  82493557.502 5     -1190.157          39.000  
J07  38091765.662 4                      -546.833          30.000    38091762.674 1 155979397.480 3      -427.060          36.000  
J03  41294068.975 4                      -833.825          31.000    41294068.863 2 169092315.476 4      -649.528          35.000  
J02  38123084.944 1 200338134.162 4       283.724          35.000    38123083.741 1 156107670.318 3       220.205          37.000  
E13  25232038.613 4                     -1844.556          31.000    25232040.198 1 101598967.983 3     -1412.837          37.000  
R20                                                                  22442551.453 8  93341427.81635     -2268.231          37.000  
> 2021 06 10 03 36 56.0050000  0 32                     
G01  22633917.299 8                     -3142.654          35.000    22633915.385 8                     -2449.812          36.000                                                  
G07  23664186.956 4 124356161.56335     -3570.973          33.000    23664184.401 8                     -2781.643          30.000                                                  
G28  24238257.526 9                      1950.836          19.000                                                                                                                  
G22  24295118.964 2 127671709.891 5     -1080.792          36.000                                                                                                                  
G21  25372534.842 9                     -3704.865          31.000                                                                                                                  
G14  22813123.915 8 119883775.11935      1569.307          34.000    22813118.183 8                      1221.697          35.000                                                  
C13  38483716.977 4                       209.292          34.000    38483713.950 4                       162.069          32.000  
C34  25619715.685 8                     -2314.600          34.000                                                                  
C25  23866483.281 1 124279042.699 3     -1995.466          36.000                                                                  
C11  24345038.917 4                     -1832.676          32.000    24345026.760 4  98027338.51124     -1417.300          38.000  
C23  24792033.007 2 129098621.027 5       960.737          31.000                                                                  
C08  38028088.835 2                      -135.092          31.000    38028075.925 1 153123305.093 3      -104.244          36.000  
R21  22610902.444 8                        98.589          31.000    22610905.657 2  94107628.962 4        76.965          36.000  
R10  20920257.165 8                       265.938          27.000                                                                  
R09  21917530.097 4 117038378.361 5     -3478.621          34.000    21917528.182 2  91029838.725 3     -2705.402          39.000  
G30  22945102.224 2                     -1750.728          34.000    22945101.838 4                     -1366.714          35.000                                                  
G03  23749242.911 1 124803146.216 5       900.701          35.000    23749244.894 1  97249203.497 4       701.679          36.000                                                  
G17  23915335.970 9                         3.675          20.000                                                                                                                  
G19  25156298.896 9                      1037.037          26.000                                                                                                                  
S28  38904625.617 2                      -553.580          34.000  
C24  27289568.298 9                     -3773.637          18.000                                                                  
C07  37618555.104 2 195889681.067 5       -34.492          33.000    37618539.964 1 151474262.983 4       -27.519          34.000  
E26  25629908.102 4                       547.582          32.000    25629911.976 2                       423.360          36.000  
S37  38091864.172 2 200174085.625 5      -549.907          33.000  
E21  25545566.859 2 134242866.374 5       806.494          32.000    25545569.451 1 102861424.993 4       619.036          34.000  
E27  25645407.759 1 134767541.943 3     -1728.530          36.000    25645409.923 1 103263431.394 4     -1323.865          37.000  
E14  20487515.546 4                     -1553.451          37.000    20487518.145 2                     -1189.963          39.000  
J07  38091870.113 4                      -550.865          30.000    38091867.189 1 155979825.457 3      -429.506          37.000  
J03  41294227.497 2 217002613.659 5      -832.690          32.000    41294227.314 1 169092964.622 3      -648.670          36.000  
J02  38123031.302 1 200337851.761 4       280.657          36.000    38123030.021 1 156107450.210 3       219.218          36.000  
E13  25232389.237 2                     -1841.743          32.000    25232390.880 1 101600380.346 4     -1411.246          37.000  
R20                                                                  22443095.754 8  93343695.06924     -2266.113          39.000  
> 2021 06 10 03 36 57.0050000  0 32                     
G01  22634514.076 8                     -3140.904          34.000    22634514.399 8                     -2448.008          38.000                                                  
G07  23664864.016 4 124359732.57225     -3572.604          33.000    23664860.778 8                     -2784.034          30.000                                                  
G28  24237878.249 9                      1950.836          18.000                                                                                                                  
G22  24295324.844 2                     -1082.326          32.000                                                                                                                  
G21  25373236.009 8                     -3704.761          35.000                                                                                                                  
G14  22812825.666 4                      1571.262          33.000    22812822.501 8  93414681.56415      1222.234          31.000                                                  
C13  38483678.210 4                       208.958          33.000    38483673.715 4                       160.841          33.000  
C34  25620160.710 8                     -2311.963          33.000                                                                  
C25  23866866.660 1 124281039.168 3     -1997.244          35.000                                                                  
C11  24345390.990 4                     -1830.744          32.000    24345377.880 4  98028754.282 3     -1414.628          37.000  
C23  24791848.859 9                       962.277          24.000                                                                  
C08  38028114.618 2                      -134.928          31.000    38028101.756 2 153123409.390 5      -104.574          32.000  
R21  22610884.880 4                       101.052          31.000    22610887.080 2  94107551.851 5        79.124          34.000  
R10  20920206.328 8                       266.915          29.000                                                                  
R09  21918181.739 4                     -3482.459          33.000    21918179.893 2  91032545.308 3     -2708.301          38.000  
G30  22945435.673 2                     -1752.252          34.000    22945435.442 2                     -1364.503          32.000                                                  
G03  23749071.860 1 124802247.474 4       896.568          35.000    23749073.798 1  97248503.153 4       698.767          36.000                                                  
G17  23915334.317 9                         4.963          20.000                                                                                                                  
G19  25156099.322 9                      1049.112          23.000                                                                                                                  
S28  38904731.317 2                      -555.274          33.000  
C24  27290293.672 9                     -3779.449          16.000                                                                  
C07  37618561.868 2 195889716.599 4       -36.102          33.000    37618546.635 1 151474290.338 4       -26.814          35.000  
E26  25629803.336 4                       552.127          35.000    25629807.165 2                       421.937          32.000  
S37  38091969.229 2                      -553.828          32.000  
E21  25545413.128 2                       808.978          31.000    25545415.907 1 102860805.944 4       619.249          36.000  
E27  25645736.909 1 134769271.432 4     -1731.314          35.000    25645738.948 1 103264756.541 3     -1326.897          38.000  
E14  20487812.960 4 107664197.798 5     -1552.717          35.000    20487813.902 2  82495938.431 5     -1189.275          41.000  
J07  38091975.029 4                      -553.503          29.000    38091972.147 1 155980255.662 4      -431.344          34.000  
J03  41294385.780 2 217003446.002 5      -832.753          32.000    41294385.714 1 169093613.139 3      -647.935          37.000  
J02  38122978.011 1 200337572.105 4       278.123          36.000    38122976.734 1 156107232.290 3       216.733          36.000  
E13  25232739.463 2                     -1840.463          31.000    25232741.302 1 101601791.470 4     -1410.066          36.000  
R20                                                                  22443641.409 8  93345959.11514     -2262.347          35.000  
> 2021 06 10 03 36 58.0050000  0 33                     
G01  22635111.378 4 118948317.32635     -3141.904          35.000    22635113.244 4  92686994.399 3     -2449.277          37.000                                                  
G07  23665543.540 8                     -3574.715          30.000    23665542.484 8                     -2785.568          29.000                                                  
G28  24237500.194 9                      1950.836          22.000                                                                                                                  
G22  24295532.752 9                     -1086.383          25.000                                                                                                                  
G21  25373942.359 9                     -3709.082          31.000                                                                                                                  
G14  22812525.959 4 119880632.25935      1572.904          34.000    22812522.633 8  93413456.318 4      1226.136          33.000                                                  
C13  38483640.249 4 200394406.97915       208.120          34.000    38483635.075 4 154957642.12615       159.948          31.000  
C34  25620605.897 4                     -2313.417          33.000                                                                  
C25  23867250.359 1 124283036.952 5     -1999.071          33.000                                                                  
C11  24345741.449 4 126774684.56015     -1828.336          34.000    24345729.594 2  98030168.656 2     -1413.952          40.000  
C23  24791665.213 9                       963.985          26.000                                                                  
C08  38028140.934 2                      -135.702          33.000    38028127.856 1 153123514.451 4      -105.741          36.000  
R21  22610865.901 4                       105.736          31.000    22610867.787 2                        81.515          27.000  
R10  20920157.764 8                       266.328          29.000                                                                  
R09  21918834.173 4                     -3485.742          31.000    21918832.406 2  91035255.100 2     -2711.529          39.000  
G30  22945769.089 2 120580831.566 5     -1750.756          34.000    22945768.962 2                     -1364.822          32.000                                                  
G03  23748901.893 2 124801353.869 5       891.068          34.000    23748903.752 2  97247806.794 5       695.878          34.000                                                  
G17  23915332.212 9                        17.005          20.000    23915337.199 9                        14.069          22.000                                                  
G19  25155901.010 9                      1061.415          20.000                                                                                                                  
S28  38904836.809 2 204446253.758 5      -553.662          33.000  
C24  27291019.236 9                     -3780.673          18.000                                                                  
C07  37618568.811 2 195889752.691 4       -36.392          34.000    37618553.542 1 151474318.313 4       -27.774          35.000  
E26  25629696.960 8                       553.454          32.000    25629702.132 2                       424.027          33.000  
S37  38092074.748 2                      -555.739          32.000  
E21  25545259.117 2 134241248.557 5       811.072          31.000    25545262.009 1 102860185.391 5       621.590          35.000  
E27  25646066.698 1 134771004.651 4     -1735.672          32.000    25646068.792 1 103266084.580 4     -1329.728          35.000  
E15  28551605.762 9                     -3046.316          21.000                                                                  
E14  20488108.722 4 107665751.805 5     -1554.797          37.000    20488110.023 2  82497129.132 4     -1191.517          39.000  
J07  38092080.428 2                      -555.948          29.000    38092077.697 1 155980688.036 4      -433.751          35.000  
J03  41294544.210 2                      -833.658          32.000    41294544.215 1 169094261.876 4      -648.943          36.000  
J02  38122925.371 1 200337295.659 5       274.833          34.000    38122924.112 1 156107016.824 3       214.576          35.000  
E13  25233089.991 2                     -1840.693          31.000    25233091.598 1 101603201.661 4     -1409.825          38.000  
R20                                                                  22444187.555 8  93348221.858 4     -2262.335          37.000  
> 2021 06 10 03 36 59.0050000  0 31                     
G01  22635709.654 4 118951459.45724     -3143.070          37.000    22635710.939 2  92689442.832 3     -2448.074          38.000                                                  
G07  23666224.934 8                     -3576.983          30.000    23666223.352 9                     -2785.232          26.000                                                  
G28  24237116.285 9                      1960.846          25.000                                                                                                                  
G22  24295740.930 9                     -1086.407          23.000                                                                                                                  
G14  22812226.164 8                      1575.364          29.000    22812224.666 8  93412229.717 5      1226.196          33.000                                                  
C13  38483600.140 4 200394199.349 4       206.859          34.000    38483594.864 4 154957481.544 5       160.143          32.000  
C34  25621049.686 4                     -2314.280          36.000                                                                  
C25  23867634.312 2 124285035.739 5     -2000.098          34.000                                                                  
C11  24346093.585 2 126776512.638 4     -1828.253          36.000    24346080.772 2  98031582.224 3     -1414.173          38.000  
C23  24791479.561 8                       969.703          27.000                                                                  
C08  38028167.199 2 198022642.991 5      -137.428          33.000    38028154.133 1 153123619.971 3      -105.514          36.000  
R21  22610846.875 9                       104.778          22.000    22610848.607 8                        85.210          26.000  
R10  20920107.377 8                       266.256          29.000                                                                  
R09  21919487.018 2 117048829.336 5     -3488.169          32.000    21919485.513 2  91037967.343 3     -2713.064          35.000  
G30  22946102.385 2 120582583.118 5     -1750.608          33.000    22946102.245 2  93960453.951 5     -1365.255          33.000                                                  
G03  23748732.703 2                       888.900          35.000    23748734.506 2                       693.176          34.000                                                  
G17  23915329.318 9                        17.697          23.000                                                                                                                  
G19  25155704.031 9                      1064.856          17.000                                                                                                                  
S28  38904942.089 8                      -548.633          30.000  
C24  27291745.361 9                     -3774.743          18.000                                                                  
C07  37618575.733 2 195889789.336 5       -37.386          33.000    37618560.671 1 151474346.629 3       -28.604          37.000  
E26  25629591.586 8                       553.311          32.000    25629596.794 2                       422.030          34.000  
S37  38092180.876 4                      -557.648          31.000  
E21  25545104.580 2 134240437.413 5       810.902          31.000    25545107.685 1 102859563.829 4       621.637          36.000  
E27  25646396.938 1 134772740.610 5     -1735.913          34.000    25646399.251 1 103267414.765 3     -1331.187          36.000  
E14  20488404.551 2 107667306.642 3     -1555.719          39.000    20488405.449 1  82498320.509 3     -1191.656          40.000  
J07  38092186.587 2                      -557.704          28.000    38092183.612 2 155981122.068 4      -435.164          35.000  
J03  41294702.675 2 217005111.380 5      -833.034          33.000    41294702.597 1 169094910.881 3      -649.274          36.000  
J02  38122873.261 2 200337021.465 5       273.767          34.000    38122871.880 1 156106803.205 3       213.136          35.000  
E13  25233440.050 2 132602618.068 5     -1840.434          32.000    25233441.895 1 101604611.454 3     -1409.833          39.000  
R20                                                                  22444731.749 4  93350483.321 3     -2261.383          39.000  
> 2021 06 10 03 37 00.0050000  0 32                     
G01  22636307.641 2 118954601.25823     -3141.884          36.000    22636308.473 1  92691891.011 3     -2447.744          39.000                                                  
G07  23666905.604 4                     -3578.672          31.000    23666904.751 9                     -2787.622          24.000                                                  
G28  24236739.539 9                      1960.846          25.000                                                                                                                  
G22  24295949.960 9                     -1086.636          22.000                                                                                                                  
G21  25375356.156 9                     -3704.188          30.000                                                                                                                  
G14  22811923.716 8                      1574.764          29.000    22811924.056 8                      1227.013          31.000                                                  
C13  38483560.539 4                       205.571          32.000    38483554.871 4 154957322.096 5       158.582          35.000  
C34  25621494.206 4 133417842.06434     -2313.133          38.000                                                                  
C25  23868018.430 1 124287036.093 4     -2001.856          34.000                                                                  
C11  24346443.695 2 126778339.478 3     -1827.051          36.000    24346432.449 2  98032994.834 4     -1411.956          40.000  
C23  24791293.492 4                       969.674          31.000                                                                  
C08  38028193.585 2 198022780.410 5      -137.605          33.000    38028180.636 1 153123726.280 3      -106.624          39.000  
R21  22610828.314 9                       105.218          20.000    22610829.729 9                        81.432          25.000  
R10  20920058.133 8                       265.875          29.000                                                                  
R09  21920140.398 4 117052319.264 5     -3491.364          33.000    21920139.113 2  91040681.676 5     -2715.386          36.000  
G30  22946435.845 1 120584335.747 5     -1753.687          36.000    22946435.724 2                     -1366.304          34.000                                                  
G03  23748564.008 2                       886.738          35.000    23748565.513 2                       689.650          32.000                                                  
G17  23915325.633 9                        20.074          22.000                                                                                                                  
G19  25155504.109 9                      1053.005          17.000                                                                                                                  
S28  38905047.258 4                      -554.521          34.000  
C24  27292467.088 9                     -3762.093          16.000                                                                  
C07  37618582.780 2 195889826.050 5       -36.250          33.000    37618567.795 1 151474375.019 3       -28.658          38.000  
E26  25629488.701 8                       552.491          31.000    25629491.396 2                       422.031          31.000  
S37  38092287.114 2 200176308.309 5      -559.435          33.000  
E21  25544949.631 2                       812.891          31.000    25544953.076 1 102858941.825 4       622.329          38.000  
E27  25646727.685 2                     -1738.623          31.000    25646730.081 1 103268746.470 4     -1332.916          36.000  
E14  20488700.696 2 107668861.672 3     -1554.965          38.000    20488701.241 1  82499512.026 3     -1191.180          40.000  
J07  38092292.745 2                      -559.530          29.000    38092289.860 1 155981557.326 3      -436.013          37.000  
J03  41294861.142 2 217005943.884 5      -832.294          34.000    41294860.992 1 169095559.523 3      -648.093          38.000  
J02  38122821.417 2                       272.307          32.000    38122820.000 2 156106590.842 5       211.963          33.000  
E13  25233789.891 2 132604457.392 5     -1839.912          32.000    25233791.958 1 101606020.778 3     -1409.416          39.000  
R20                                                                  22445274.456 4  93352743.656 3     -2259.528          41.000  
> 2021 06 10 03 37 01.0050000  0 32                     
G01  22636905.304 1 118957742.181 3     -3140.485          37.000    22636906.004 1  92694338.529 3     -2447.280          38.000                                                  
G07  23667586.390 4                     -3580.569          32.000    23667585.924 9                     -2790.811          24.000                                                  
G28  24236363.498 9                      1960.846          26.000                                                                                                                  
G22  24296158.594 9                     -1087.403          22.000                                                                                                                  
G21  25376062.821 8                     -3701.750          29.000                                                                                                                  
G14  22811625.639 9                      1578.834          20.000    22811625.668 8                      1228.752          30.000                                                  
C13  38483519.951 4                       204.206          31.000    38483514.670 4                       158.394          31.000  
C34  25621935.317 4 133420153.92425     -2310.453          35.000                                                                  
C25  23868402.764 2 124289037.688 5     -2002.219          33.000                                                                  
C11  24346794.566 2 126780164.917 4     -1824.111          36.000    24346783.213 2  98034406.449 3     -1410.730          38.000  
C23  24791105.298 4                       970.473          35.000                                                                  
C08  38028220.125 2 198022918.562 5      -137.843          32.000    38028207.125 1 153123833.093 3      -106.807          37.000  
R21  22610807.969 9                       105.200          16.000    22610811.051 9                        87.321          25.000  
R10  20920007.526 8                       264.769          29.000                                                                  
R09  21920794.484 4 117055811.127 5     -3492.577          33.000    21920793.007 2  91043397.532 5     -2716.265          36.000  
G30  22946769.544 2                     -1754.749          32.000    22946769.405 2                     -1366.371          31.000                                                  
G03  23748395.351 2                       886.465          33.000    23748396.840 2                       689.943          32.000                                                  
G17  23915320.684 9                        11.243          22.000                                                                                                                  
G19  25155303.311 9                      1059.206          16.000                                                                                                                  
S28  38905152.540 4                      -555.605          30.000  
C24  27293192.158 9                     -3786.133          14.000                                                                  
C07  37618589.685 2 195889862.364 5       -35.560          33.000    37618574.703 1 151474403.092 4       -27.653          36.000  
E26  25629383.642 9                       553.018          24.000    25629386.243 2                       422.737          30.000  
S37  38092393.692 2 200176867.747 5      -558.563          33.000  
E21  25544794.957 2                       811.722          30.000    25544798.493 1 102858319.582 4       621.984          33.000  
E27  25647058.425 2                     -1739.325          31.000    25647060.685 1 103270078.975 5     -1332.143          33.000  
E14  20488996.790 1 107670416.395 3     -1554.450          36.000    20488997.395 1  82500703.361 3     -1191.334          39.000  
J07  38092399.271 2                      -559.626          29.000    38092396.313 1 155981993.294 3      -435.595          36.000  
J03  41295019.496 2 217006775.461 4      -831.544          35.000    41295019.314 1 169096207.524 3      -647.300          37.000  
J02  38122769.718 2                       270.806          32.000    38122768.363 2 156106379.105 4       212.851          34.000  
E13  25234139.635 2 132606295.917 5     -1838.172          33.000    25234141.754 1 101607429.536 4     -1408.312          38.000  
R20                                                                  22445817.464 4  93355002.856 3     -2258.344          41.000  
> 2021 06 10 03 37 02.0050000  0 31                     
G01  22637502.797 1 118960881.887 4     -3138.878          36.000    22637503.394 1  92696785.043 3     -2446.227          38.000                                                  
G07  23668268.237 4                     -3586.173          32.000    23668267.063 9                     -2791.083          23.000                                                  
G28  24235979.012 9                      1973.693          34.000                                                                                                                  
G22  24296364.130 9                     -1089.684          34.000                                                                                                                  
G21  25376765.423 8                     -3700.598          33.000                                                                                                                  
G14  22811325.069 9                      1577.620          33.000    22811324.472 8                      1230.265          34.000                                                  
C13  38483481.139 4                       201.820          31.000    38483475.134 2 154957005.913 5       157.035          33.000  
C34  25622381.131 4 133422463.96624     -2308.149          37.000                                                                  
C25  23868787.418 2 124291040.432 5     -2003.997          34.000                                                                  
C11  24347144.824 1 126781988.849 4     -1823.202          35.000    24347133.461 1  98035816.798 3     -1409.911          38.000  
C23  24790918.875 9                       971.955          25.000                                                                  
C08  38028246.560 2 198023057.100 5      -139.457          32.000    38028233.764 1 153123940.228 4      -107.633          37.000  
R21  22610787.959 9                       113.249          17.000    22610792.982 9                        72.979          24.000  
R10  20919958.107 8                       267.004          27.000                                                                  
R09  21921448.632 4 117059304.581 5     -3494.855          33.000    21921447.402 2  91046114.685 5     -2718.387          36.000  
G30  22947103.571 2                     -1757.112          32.000    22947103.464 2                     -1367.813          31.000                                                  
G03  23748227.176 4                       885.300          31.000    23748228.971 8                       692.227          26.000                                                  
G17  23915315.910 9                        21.796          22.000                                                                                                                  
G19  25155104.129 9                      1055.550          17.000                                                                                                                  
S28  38905258.163 4                      -554.266          30.000  
C07  37618596.671 2 195889897.841 5       -35.096          33.000    37618581.484 1 151474430.569 4       -27.996          36.000  
E26  25629277.386 9                       552.475          24.000    25629281.270 2                       421.002          29.000  
S37  38092500.266 2 200177427.804 5      -560.421          33.000  
E21  25544639.007 4                       814.296          30.000    25544643.947 1 102857696.424 5       622.864          36.000  
E27  25647389.230 2                     -1741.099          32.000    25647391.949 1 103271411.918 5     -1333.954          36.000  
E14  20489292.413 1 107671970.465 3     -1553.693          37.000    20489293.173 1  82501894.080 3     -1190.365          39.000  
J07  38092505.801 2                      -561.301          29.000    38092502.853 1 155982429.653 3      -437.095          36.000  
J03  41295177.663 2 217007605.660 4      -829.465          35.000    41295177.222 1 169096854.438 3      -646.445          37.000  
J02  38122718.185 4                       269.211          31.000    38122716.684 2 156106167.719 5       210.551          32.000  
E13  25234489.375 2 132608133.461 5     -1837.537          32.000    25234491.399 1 101608837.544 3     -1407.760          38.000  
R20                                                                  22446360.502 2  93357260.790 3     -2257.324          37.000  
